# 
# Header Description:
# 
# Version: v3.0.0.0 Platform: 10 Manufacturer: Xiaomi Model: MI 8
# 
# Raw,utcTimeMillis,TimeNanos,LeapSecond,TimeUncertaintyNanos,FullBiasNanos,BiasNanos,BiasUncertaintyNanos,DriftNanosPerSecond,DriftUncertaintyNanosPerSecond,HardwareClockDiscontinuityCount,Svid,TimeOffsetNanos,State,ReceivedSvTimeNanos,ReceivedSvTimeUncertaintyNanos,Cn0DbHz,PseudorangeRateMetersPerSecond,PseudorangeRateUncertaintyMetersPerSecond,AccumulatedDeltaRangeState,AccumulatedDeltaRangeMeters,AccumulatedDeltaRangeUncertaintyMeters,CarrierFrequencyHz,CarrierCycles,CarrierPhase,CarrierPhaseUncertainty,MultipathIndicator,SnrInDb,ConstellationType,AgcDb,BasebandCn0DbHz,FullInterSignalBiasNanos,FullInterSignalBiasUncertaintyNanos,SatelliteInterSignalBiasNanos,SatelliteInterSignalBiasUncertaintyNanos,CodeType,ChipsetElapsedRealtimeNanos
# 
# UncalAccel,utcTimeMillis,elapsedRealtimeNanos,UncalAccelXMps2,UncalAccelYMps2,UncalAccelZMps2,BiasXMps2,BiasYMps2,BiasZMps2
# 
# UncalGyro,utcTimeMillis,elapsedRealtimeNanos,UncalGyroXRadPerSec,UncalGyroYRadPerSec,UncalGyroZRadPerSec,DriftXRadPerSec,DriftYRadPerSec,DriftZRadPerSec
# 
# UncalMag,utcTimeMillis,elapsedRealtimeNanos,UncalMagXMicroT,UncalMagYMicroT,UncalMagZMicroT,BiasXMicroT,BiasYMicroT,BiasZMicroT
# 
# OrientationDeg,utcTimeMillis,elapsedRealtimeNanos,yawDeg,rollDeg,pitchDeg
# 
# Fix,Provider,LatitudeDegrees,LongitudeDegrees,AltitudeMeters,SpeedMps,AccuracyMeters,BearingDegrees,UnixTimeMillis,SpeedAccuracyMps,BearingAccuracyDegrees,elapsedRealtimeNanos
# 
# Nav,Svid,Type,Status,MessageId,Sub-messageId,Data(Bytes)
# 
# Status,UnixTimeMillis,SignalCount,SignalIndex,ConstellationType,Svid,CarrierFrequencyHz,Cn0DbHz,AzimuthDegrees,ElevationDegrees,UsedInFix,HasAlmanacData,HasEphemerisData,BasebandCn0DbHz
# 
OrientationDeg,1668689128345,33209048851508,105,8,-8
OrientationDeg,1668689128359,33209062184424,105,6,-12
OrientationDeg,1668689128372,33209075480830,106,6,-12
OrientationDeg,1668689128385,33209088849893,106,6,-12
OrientationDeg,1668689128399,33209102184945,106,6,-13
OrientationDeg,1668689128412,33209115481820,107,6,-13
OrientationDeg,1668689128425,33209128850310,107,6,-13
OrientationDeg,1668689128439,33209142182028,106,7,-14
OrientationDeg,1668689128452,33209155480049,106,7,-14
OrientationDeg,1668689128465,33209168837549,106,7,-14
OrientationDeg,1668689128479,33209182183018,106,6,-15
OrientationDeg,1668689128492,33209195477237,105,6,-15
OrientationDeg,1668689128505,33209208845258,105,6,-15
OrientationDeg,1668689128519,33209222179320,104,5,-15
OrientationDeg,1668689128532,33209235477705,104,5,-15
OrientationDeg,1668689128545,33209248843174,104,5,-15
OrientationDeg,1668689128559,33209262181351,105,5,-16
OrientationDeg,1668689128572,33209275473591,105,5,-16
OrientationDeg,1668689128585,33209288860258,105,5,-16
OrientationDeg,1668689128599,33209302180518,106,5,-16
OrientationDeg,1668689128612,33209315474424,106,5,-17
OrientationDeg,1668689128625,33209328846195,106,5,-17
OrientationDeg,1668689128639,33209342181195,107,4,-15
OrientationDeg,1668689128652,33209355472393,107,3,-15
OrientationDeg,1668689128665,33209368845622,107,3,-15
OrientationDeg,1668689128679,33209382207653,106,3,-15
OrientationDeg,1668689128692,33209395470570,107,3,-15
OrientationDeg,1668689128705,33209408834633,107,3,-15
OrientationDeg,1668689128719,33209422176976,106,3,-15
OrientationDeg,1668689128732,33209435468695,106,3,-15
OrientationDeg,1668689128745,33209448842393,106,3,-15
OrientationDeg,1668689128759,33209462176143,106,2,-15
OrientationDeg,1668689128772,33209475476039,106,2,-15
OrientationDeg,1668689128785,33209488801247,106,2,-15
OrientationDeg,1668689128799,33209502179945,106,2,-16
OrientationDeg,1668689128812,33209515467862,105,2,-16
OrientationDeg,1668689128825,33209528839633,105,2,-16
OrientationDeg,1668689128839,33209542174685,105,2,-16
OrientationDeg,1668689128852,33209555465049,105,2,-16
OrientationDeg,1668689128865,33209568835987,105,2,-16
OrientationDeg,1668689128879,33209582172028,106,2,-17
OrientationDeg,1668689128892,33209595465935,105,2,-17
OrientationDeg,1668689128905,33209608835622,105,2,-17
OrientationDeg,1668689128919,33209622181664,106,2,-17
OrientationDeg,1668689128932,33209635462914,105,2,-18
OrientationDeg,1668689128945,33209648834320,105,2,-18
OrientationDeg,1668689128959,33209662177133,105,2,-18
OrientationDeg,1668689128972,33209675465153,105,2,-18
OrientationDeg,1668689128985,33209688832185,105,2,-18
OrientationDeg,1668689128999,33209702169789,105,1,-19
OrientationDeg,1668689129012,33209715464112,104,1,-19
OrientationDeg,1668689129025,33209728834216,104,1,-19
OrientationDeg,1668689129039,33209742167445,105,0,-18
OrientationDeg,1668689129052,33209755473851,106,0,-18
OrientationDeg,1668689129065,33209768830518,106,0,-18
OrientationDeg,1668689129079,33209782167080,106,0,-18
Status,0,34,0,5,29,1575449984,36.00,181.00,81.00,1,1,1,
Status,0,34,1,1,8,1176450048,36.00,347.00,78.00,1,1,1,
Status,0,34,2,1,8,1575449984,39.00,347.00,78.00,1,1,1,
Status,0,34,3,4,194,1176450048,35.00,93.00,72.00,1,1,1,
Status,0,34,4,4,194,1575449984,40.00,93.00,72.00,1,1,1,
Status,0,34,5,6,30,1575449984,31.00,345.00,67.00,1,1,1,
Status,0,34,6,3,15,1602000000,40.00,74.00,66.00,1,1,1,
Status,0,34,7,5,7,1575449984,34.00,298.00,66.00,1,1,1,
Status,0,34,8,4,195,1176450048,37.00,134.00,64.00,1,1,1,
Status,0,34,9,4,195,1575449984,42.00,134.00,64.00,1,1,1,
Status,0,34,10,3,17,1604249984,42.00,42.00,63.00,1,1,1,
Status,0,34,11,6,34,1575449984,39.00,131.00,58.00,1,1,1,
Status,0,34,12,5,9,1575449984,11.00,228.00,54.00,0,1,1,
Status,0,34,13,5,10,1575449984,30.00,285.00,53.00,1,1,1,
Status,0,34,14,1,7,1575449984,36.00,301.00,52.00,1,1,1,
Status,0,34,15,5,36,1575449984,43.00,128.00,49.00,1,1,1,
Status,0,34,16,1,27,1575449984,44.00,44.00,46.00,1,1,1,
Status,0,34,17,1,27,1176450048,39.00,44.00,46.00,1,1,1,
Status,0,34,18,5,6,1575449984,16.00,206.00,45.00,1,1,1,
Status,0,34,19,1,21,1575449984,32.00,167.00,43.00,1,1,1,
Status,0,34,20,6,2,1575449984,39.00,89.00,43.00,1,1,1,
Status,0,34,21,5,1,1575449984,35.00,146.00,40.00,1,1,1,
Status,0,34,22,6,36,1575449984,39.00,52.00,36.00,1,1,1,
Status,0,34,23,1,16,1575449984,42.00,84.00,32.00,1,1,1,
Status,0,34,24,5,4,1575449984,21.00,128.00,31.00,1,1,1,
Status,0,34,25,5,35,1575449984,16.00,218.00,30.00,1,1,1,
Status,0,34,26,3,14,1598062464,27.00,119.00,21.00,1,1,1,
Status,0,34,27,6,27,1575449984,27.00,299.00,20.00,1,1,1,
Status,0,34,28,1,30,1575449984,38.00,315.00,19.00,1,1,1,
Status,0,34,29,1,30,1176450048,35.00,315.00,19.00,1,1,1,
Status,0,34,30,1,9,1575449984,20.00,240.00,17.00,1,1,1,
Status,0,34,31,1,9,1176450048,11.00,240.00,17.00,1,1,1,
Status,0,34,32,5,26,1575449984,35.00,312.00,17.00,1,1,1,
Status,0,34,33,3,24,1603124992,42.00,30.00,11.00,1,1,1,
OrientationDeg,1668689129092,33209795459164,106,0,-18
Fix,GPS,37.5346976,122.0740369,17.030988,0.000000,8.000000,0.000000,1668689128999,20.000000,0.000000,33209792751644
Raw,1668689128999,1829611000000,,,-1352722517388746419,0.0,53.76419151700564,,,0,4,0.0,16392,391546916924100,1000000000,7.0,615.6210511047411,2.99792458E8,20,11785.568100165274,3.4028234663852886E38,1.57542003E9,,,,0,,1,48.692569732666016,,,,,,C,
Raw,1668689128999,1829611000000,,,-1352722517388746419,0.0,53.76419151700564,,,0,7,0.0,16427,391546928566904,19,34.25302505493164,-342.1905219206251,0.40987209407652925,20,-6162.770186569759,3.4028234663852886E38,1.57542003E9,,,,0,,1,48.692569732666016,,,,,,C,
Raw,1668689128999,1829611000000,,,-1352722517388746419,0.0,53.76419151700564,,,0,8,0.0,16427,391546932390298,13,38.558265686035156,128.23861683026985,0.21695803447100492,20,3079.1864526189843,3.4028234663852886E38,1.57542003E9,,,,0,,1,48.692569732666016,,,,,,C,
Raw,1668689128999,1829611000000,,,-1352722517388746419,0.0,53.76419151700564,,,0,9,0.0,16392,391546919701807,1000000000,18.261234283447266,513.1425002337157,2.99792458E8,20,2575.1795786591615,3.4028234663852886E38,1.57542003E9,,,,0,,1,48.692569732666016,,,,,,C,
Raw,1668689128999,1829611000000,,,-1352722517388746419,0.0,53.76419151700564,,,0,10,0.0,16392,391546913494485,1000000000,15.536299705505371,-306.14045110029633,2.99792458E8,18,-7.967033851415422,3.4028234663852886E38,1.57542003E9,,,,0,,1,48.692569732666016,,,,,,C,
Raw,1668689128999,1829611000000,,,-1352722517388746419,0.0,53.76419151700564,,,0,16,0.0,16427,391546923442322,13,39.01854705810547,476.8166682576609,0.1946501846601284,20,8611.786672839935,3.4028234663852886E38,1.57542003E9,,,,0,,1,48.692569732666016,,,,,,C,
Raw,1668689128999,1829611000000,,,-1352722517388746419,0.0,53.76419151700564,,,0,21,0.0,16393,391546928557547,23,31.89084815979004,-458.24844369666425,0.5160948959589653,20,-8240.104909946253,3.4028234663852886E38,1.57542003E9,,,,0,,1,48.692569732666016,,,,,,C,
Raw,1668689128999,1829611000000,,,-1352722517388746419,0.0,53.76419151700564,,,0,26,0.0,16427,391546916243681,11,40.47044372558594,556.7723389724349,0.15281806316719926,20,15703.642840888908,3.4028234663852886E38,1.57542003E9,,,,0,,1,48.692569732666016,,,,,,C,
Raw,1668689128999,1829611000000,,,-1352722517388746419,0.0,53.76419151700564,,,0,27,0.0,16427,391546928518131,11,43.571372985839844,508.20504292216924,0.15142843753996893,20,15865.178293187691,3.4028234663852886E38,1.57542003E9,,,,0,,1,48.692569732666016,,,,,,C,
Raw,1668689128999,1829611000000,,,-1352722517388746419,0.0,53.76419151700564,,,0,30,0.0,16427,391546919652737,15,36.835174560546875,-591.0428965727947,0.29574988408735714,20,-16088.77820325256,3.4028234663852886E38,1.57542003E9,,,,0,,1,48.692569732666016,,,,,,C,
Raw,1668689128999,1829611000000,,,-1352722517388746419,0.0,53.76419151700564,,,0,8,0.0,81929,391546932390288,11,36.32481384277344,129.36021083013662,0.3173938748781402,20,6861.810417359179,3.4028234663852886E38,1.17645005E9,,,,0,,1,8.06670093536377,,,,,,Q,
Raw,1668689128999,1829611000000,,,-1352722517388746419,0.0,53.76419151700564,,,0,9,0.0,16392,391546919701758,1000000000,9.22243881225586,505.0888839222887,2.99792458E8,20,4067.575937458493,3.4028234663852886E38,1.17645005E9,,,,0,,1,8.06670093536377,,,,,,Q,
Raw,1668689128999,1829611000000,,,-1352722517388746419,0.0,53.76419151700564,,,0,26,0.0,81929,391546916243666,11,40.77177047729492,557.4531701239346,0.15281806316719926,20,61413.212860825195,3.4028234663852886E38,1.17645005E9,,,,0,,1,8.06670093536377,,,,,,Q,
Raw,1668689128999,1829611000000,,,-1352722517388746419,0.0,53.76419151700564,,,0,27,0.0,81929,391546928518122,32,33.55287170410156,508.1764477411466,0.44134844088670677,20,51591.15476390163,3.4028234663852886E38,1.17645005E9,,,,0,,1,8.06670093536377,,,,,,Q,
Raw,1668689128999,1829611000000,,,-1352722517388746419,0.0,53.76419151700564,,,0,30,0.0,81929,391546919652722,15,34.994930267333984,-590.7426301308287,0.37850351972164553,20,-58101.35529650643,3.4028234663852886E38,1.17645005E9,,,,0,,1,8.06670093536377,,,,,,Q,
Raw,1668689128999,1829611000000,,,-1352722517388746419,0.0,53.76419151700564,,,0,14,0.0,16393,592592,76,25.986400604248047,598.7078365500356,0.7808980426582064,20,10800.739051633182,3.4028234663852886E38,1.59806246E9,,,,0,,3,61.477691650390625,,,,,,C,
Raw,1668689128999,1829611000000,,,-1352722517388746419,0.0,53.76419151700564,,,0,96,0.0,16393,929297,179,15.391081809997559,516.1180691004397,1.2597564236690966,20,8720.946369168334,3.4028234663852886E38,1.59975002E9,,,,0,,3,61.477691650390625,,,,,,C,
Raw,1668689128999,1829611000000,,,-1352722517388746419,0.0,53.76419151700564,,,0,15,0.0,16427,14573447,33,38.82016372680664,95.28369317537533,0.20557347884109334,20,1723.3859066637028,3.4028234663852886E38,1.602E9,,,,0,,3,61.477691650390625,,,,,,C,
Raw,1668689128999,1829611000000,,,-1352722517388746419,0.0,53.76419151700564,,,0,24,0.0,16427,1300243,33,41.28410339355469,802.5355820127465,0.15013010896180312,20,26593.563889340345,3.4028234663852886E38,1.60312499E9,,,,0,,3,61.477691650390625,,,,,,C,
Raw,1668689128999,1829611000000,,,-1352722517388746419,0.0,53.76419151700564,,,0,17,0.0,16427,14631945,33,39.95296096801758,342.0748801456432,0.15464343832645755,20,7163.226388333913,3.4028234663852886E38,1.60424998E9,,,,0,,3,61.477691650390625,,,,,,C,
Raw,1668689128999,1829611000000,,,-1352722517388746419,0.0,53.76419151700564,,,0,105,0.0,16427,18544629,59,28.99060821533203,101.9553425603296,0.6483118282660465,20,1836.960179487528,3.4028234663852886E38,1.60481254E9,,,,0,,3,61.477691650390625,,,,,,C,
Raw,1668689128999,1829611000000,,,-1352722517388746419,0.0,53.76419151700564,,,0,194,0.0,16427,391546870438041,12,39.636146545410156,-85.36198333947652,0.16813579751877616,20,-1584.5384058617901,3.4028234663852886E38,1.57542003E9,,,,0,,4,48.692569732666016,,,,,,C,
Raw,1668689128999,1829611000000,,,-1352722517388746419,0.0,53.76419151700564,,,0,195,0.0,16427,391546873440602,10,42.23394012451172,110.28267508009134,0.15231386581110962,20,2124.5053635906243,3.4028234663852886E38,1.57542003E9,,,,0,,4,48.692569732666016,,,,,,C,
Raw,1668689128999,1829611000000,,,-1352722517388746419,0.0,53.76419151700564,,,0,196,0.0,16392,391546874077617,1000000000,13.653606414794922,26.362471248131598,2.99792458E8,20,468.75952103967154,3.4028234663852886E38,1.57542003E9,,,,0,,4,48.692569732666016,,,,,,C,
Raw,1668689128999,1829611000000,,,-1352722517388746419,0.0,53.76419151700564,,,0,194,0.0,81929,391546870438028,12,31.534000396728516,-84.44541235682271,0.5324801700669022,20,-1571.3207986319596,3.4028234663852886E38,1.17645005E9,,,,0,,4,8.06670093536377,,,,,,Q,
Raw,1668689128999,1829611000000,,,-1352722517388746419,0.0,53.76419151700564,,,0,195,0.0,81929,391546873440599,11,32.64201736450195,110.6595929667771,0.483193975690162,20,2122.745273134145,3.4028234663852886E38,1.17645005E9,,,,0,,4,8.06670093536377,,,,,,Q,
Raw,1668689128999,1829611000000,,,-1352722517388746419,0.0,53.76419151700564,,,0,196,0.0,16392,391546874077478,1000000000,7.0,18.332825554407748,2.99792458E8,20,419.6217597868337,3.4028234663852886E38,1.17645005E9,,,,0,,4,8.06670093536377,,,,,,Q,
Raw,1668689128999,1829611000000,,,-1352722517388746419,0.0,53.76419151700564,,,0,1,0.0,16393,391532874467799,21,32.8164176940918,19.554909547178497,0.47337766238956047,20,368.4773157392575,3.4028234663852886E38,1.56109798E9,,,,0,,5,62.35133361816406,,,,,,C,
Raw,1668689128999,1829611000000,,,-1352722517388746419,0.0,53.76419151700564,,,0,4,0.0,16392,391532871046576,1000000000,20.68154525756836,20.252911866305055,2.99792458E8,20,363.9906678259505,3.4028234663852886E38,1.56109798E9,,,,0,,5,62.35133361816406,,,,,,C,
Raw,1668689128999,1829611000000,,,-1352722517388746419,0.0,53.76419151700564,,,0,5,0.0,16392,391532864772926,1000000000,7.0,27.729912657665068,2.99792458E8,20,521.2768444438561,3.4028234663852886E38,1.56109798E9,,,,0,,5,62.35133361816406,,,,,,C,
Raw,1668689128999,1829611000000,,,-1352722517388746419,0.0,53.76419151700564,,,0,6,0.0,16392,391532875266095,1000000000,12.886041641235352,324.8755774508852,2.99792458E8,20,5860.660985104707,3.4028234663852886E38,1.56109798E9,,,,0,,5,62.35133361816406,,,,,,C,
Raw,1668689128999,1829611000000,,,-1352722517388746419,0.0,53.76419151700564,,,0,7,0.0,16393,391532878689764,9,34.15618133544922,-0.04823738499382574,0.4160479417061391,20,32.25243069486604,3.4028234663852886E38,1.56109798E9,,,,0,,5,62.35133361816406,,,,,,C,
Raw,1668689128999,1829611000000,,,-1352722517388746419,0.0,53.76419151700564,,,0,9,0.0,16392,391532876671800,1000000000,10.152448654174805,232.6967449410531,2.99792458E8,20,4199.904162047494,3.4028234663852886E38,1.56109798E9,,,,0,,5,62.35133361816406,,,,,,C,
Raw,1668689128999,1829611000000,,,-1352722517388746419,0.0,53.76419151700564,,,0,10,0.0,16393,391532875572386,55,30.204402923583984,-18.424720377807375,0.593194172175362,20,-270.1696042220285,3.4028234663852886E38,1.56109798E9,,,,0,,5,62.35133361816406,,,,,,C,
Raw,1668689128999,1829611000000,,,-1352722517388746419,0.0,53.76419151700564,,,0,26,0.0,16393,391532915106667,53,34.917518615722656,-536.9494028570075,0.381166910594118,20,-8578.935109447331,3.4028234663852886E38,1.56109798E9,,,,0,,5,62.35133361816406,,,,,,C,
Raw,1668689128999,1829611000000,,,-1352722517388746419,0.0,53.76419151700564,,,0,29,0.0,16393,391532927779748,52,36.3061408996582,-70.43253816668118,0.317404259376612,20,-1108.9643082676098,3.4028234663852886E38,1.56109798E9,,,,0,,5,62.35133361816406,,,,,,C,
Raw,1668689128999,1829611000000,,,-1352722517388746419,0.0,53.76419151700564,,,0,35,0.0,16393,391532919242229,346,16.063289642333984,-523.8444597467912,299.79593365366213,22,-7850.696100788478,3.4028234663852886E38,1.56109798E9,,,,0,,5,62.35133361816406,,,,,,C,
Raw,1668689128999,1829611000000,,,-1352722517388746419,0.0,53.76419151700564,,,0,36,0.0,16393,391532922944023,103,43.17152404785156,391.48503534571796,0.1504257676154087,22,5889.1900308921595,3.4028234663852886E38,1.56109798E9,,,,0,,5,62.35133361816406,,,,,,C,
Raw,1668689128999,1829611000000,,,-1352722517388746419,0.0,53.76419151700564,,,0,2,0.0,16392,391546916643354,1000000000,38.89596939086914,276.6217377532598,2.99792458E8,18,2996.5086616610843,3.4028234663852886E38,1.57542003E9,,,,0,,6,48.692569732666016,,,,,,C,
Raw,1668689128999,1829611000000,,,-1352722517388746419,0.0,53.76419151700564,,,0,8,0.0,16392,391546904603123,1000000000,14.972789764404297,519.2691285357996,2.99792458E8,18,4.150542358601523,3.4028234663852886E38,1.57542003E9,,,,0,,6,48.692569732666016,,,,,,C,
Raw,1668689128999,1829611000000,,,-1352722517388746419,0.0,53.76419151700564,,,0,15,0.0,16392,391546911990852,1000000000,7.0,-570.3234896034478,2.99792458E8,18,-4.543110325110034,3.4028234663852886E38,1.57542003E9,,,,0,,6,48.692569732666016,,,,,,C,
Raw,1668689128999,1829611000000,,,-1352722517388746419,0.0,53.76419151700564,,,0,27,0.0,16392,391546909868322,1000000000,27.357799530029297,-374.4604393230959,2.99792458E8,18,-0.739696900402167,3.4028234663852886E38,1.57542003E9,,,,0,,6,48.692569732666016,,,,,,C,
Raw,1668689128999,1829611000000,,,-1352722517388746419,0.0,53.76419151700564,,,0,30,0.0,16392,391546919908569,1000000000,31.19855499267578,-103.7795719632565,2.99792458E8,18,-0.6878745483332613,3.4028234663852886E38,1.57542003E9,,,,0,,6,48.692569732666016,,,,,,C,
Raw,1668689128999,1829611000000,,,-1352722517388746419,0.0,53.76419151700564,,,0,34,0.0,16392,391546919698474,1000000000,38.71379852294922,-232.43654242672972,2.99792458E8,18,-1.4494100802331196,3.4028234663852886E38,1.57542003E9,,,,0,,6,48.692569732666016,,,,,,C,
Raw,1668689128999,1829611000000,,,-1352722517388746419,0.0,53.76419151700564,,,0,36,0.0,16392,391546914490723,1000000000,39.018951416015625,306.51177946411235,2.99792458E8,18,1.1716388634418289,3.4028234663852886E38,1.57542003E9,,,,0,,6,48.692569732666016,,,,,,C,
OrientationDeg,1668689129105,33209808828643,106,0,-18
OrientationDeg,1668689129119,33209822160310,106,0,-20
OrientationDeg,1668689129132,33209835509945,106,0,-20
OrientationDeg,1668689129145,33209848830674,106,0,-20
OrientationDeg,1668689129159,33209862165466,107,0,-20
Fix,NLP,37.5347090,122.0744490,0.000000,0.000000,103.454056,0.000000,1668689129112,0.000000,0.000000,33209815306800
OrientationDeg,1668689129172,33209875497601,107,0,-20
OrientationDeg,1668689129185,33209888827497,107,0,-20
OrientationDeg,1668689129199,33209902165153,109,0,-19
OrientationDeg,1668689129212,33209915496039,109,0,-19
OrientationDeg,1668689129225,33209928829997,109,0,-19
OrientationDeg,1668689129239,33209942168174,111,0,-19
OrientationDeg,1668689129252,33209955508955,110,0,-19
OrientationDeg,1668689129265,33209968831820,110,0,-19
OrientationDeg,1668689129279,33209982191351,112,0,-19
OrientationDeg,1668689129292,33209995495362,112,0,-19
OrientationDeg,1668689129304,33210008829112,112,0,-19
OrientationDeg,1668689129319,33210022162914,114,0,-19
OrientationDeg,1668689129332,33210035496143,113,0,-19
OrientationDeg,1668689129345,33210048829580,113,0,-19
OrientationDeg,1668689129359,33210062161508,114,0,-18
OrientationDeg,1668689129372,33210075496299,114,0,-18
OrientationDeg,1668689129385,33210088823330,114,0,-18
OrientationDeg,1668689129399,33210102174476,115,0,-18
OrientationDeg,1668689129412,33210115497080,115,0,-18
OrientationDeg,1668689129425,33210128847966,115,0,-18
OrientationDeg,1668689129439,33210142178643,115,0,-18
OrientationDeg,1668689129452,33210155489424,115,0,-18
OrientationDeg,1668689129465,33210168820883,115,0,-18
OrientationDeg,1668689129479,33210182159580,115,0,-19
OrientationDeg,1668689129492,33210195492028,114,0,-19
OrientationDeg,1668689129505,33210208834320,114,0,-19
OrientationDeg,1668689129519,33210222178487,113,0,-19
OrientationDeg,1668689129532,33210235489112,115,0,-19
OrientationDeg,1668689129545,33210248836091,115,0,-19
OrientationDeg,1668689129559,33210262171924,115,0,-19
OrientationDeg,1668689129572,33210275490883,115,0,-19
OrientationDeg,1668689129585,33210288830310,115,0,-19
OrientationDeg,1668689129599,33210302183591,114,0,-19
OrientationDeg,1668689129612,33210315485101,114,0,-19
OrientationDeg,1668689129625,33210328849008,114,0,-19
OrientationDeg,1668689129639,33210342153643,112,1,-19
OrientationDeg,1668689129652,33210355484528,113,1,-19
OrientationDeg,1668689129665,33210368826091,113,1,-19
OrientationDeg,1668689129679,33210382165466,110,1,-20
OrientationDeg,1668689129692,33210395483955,111,1,-20
OrientationDeg,1668689129705,33210408824164,111,1,-20
OrientationDeg,1668689129719,33210422166508,108,0,-19
OrientationDeg,1668689129732,33210435482549,109,0,-19
OrientationDeg,1668689129745,33210448812185,109,0,-19
OrientationDeg,1668689129759,33210462171403,106,0,-19
OrientationDeg,1668689129772,33210475492185,106,0,-19
OrientationDeg,1668689129785,33210488774112,106,0,-19
OrientationDeg,1668689129799,33210502148435,104,1,-20
OrientationDeg,1668689129812,33210515485570,104,1,-20
OrientationDeg,1668689129825,33210528816455,104,1,-20
OrientationDeg,1668689129839,33210542157237,102,0,-22
OrientationDeg,1668689129852,33210555472028,101,0,-22
OrientationDeg,1668689129865,33210568809372,101,0,-22
OrientationDeg,1668689129879,33210582147080,98,0,-24
OrientationDeg,1668689129892,33210595482653,98,0,-24
OrientationDeg,1668689129905,33210608812237,98,0,-24
OrientationDeg,1668689129919,33210622145205,98,-1,-24
OrientationDeg,1668689129932,33210635481299,98,-1,-24
OrientationDeg,1668689129945,33210648818643,98,-1,-24
OrientationDeg,1668689129959,33210662139112,99,-2,-25
OrientationDeg,1668689129972,33210675473435,100,-2,-25
OrientationDeg,1668689129985,33210688769424,100,-2,-25
OrientationDeg,1668689129999,33210702142705,100,-3,-25
OrientationDeg,1668689130012,33210715470726,100,-3,-25
OrientationDeg,1668689130025,33210728804268,100,-3,-25
OrientationDeg,1668689130039,33210742142914,101,-4,-24
OrientationDeg,1668689130052,33210755467862,101,-4,-24
OrientationDeg,1668689130065,33210768805466,101,-4,-24
OrientationDeg,1668689130079,33210782102862,102,-3,-24
OrientationDeg,1668689130092,33210795467810,102,-3,-24
OrientationDeg,1668689130105,33210808801560,102,-3,-24
OrientationDeg,1668689130119,33210822136612,102,-1,-22
Status,1668689128999,34,0,5,29,1575449984,37.00,181.00,81.00,1,1,1,
Status,1668689128999,34,1,1,8,1176450048,37.00,347.00,78.00,1,1,1,
Status,1668689128999,34,2,1,8,1575449984,39.00,347.00,78.00,1,1,1,
Status,1668689128999,34,3,4,194,1575449984,41.00,93.00,72.00,1,1,1,
Status,1668689128999,34,4,4,194,1176450048,37.00,93.00,72.00,1,1,1,
Status,1668689128999,34,5,6,30,1575449984,36.00,345.00,67.00,1,1,1,
Status,1668689128999,34,6,3,15,1602000000,41.00,74.00,66.00,1,1,1,
Status,1668689128999,34,7,5,7,1575449984,34.00,298.00,66.00,1,1,1,
Status,1668689128999,34,8,4,195,1575449984,42.00,134.00,64.00,1,1,1,
Status,1668689128999,34,9,4,195,1176450048,36.00,134.00,64.00,1,1,1,
Status,1668689128999,34,10,3,17,1604249984,42.00,42.00,63.00,1,1,1,
Status,1668689128999,34,11,6,34,1575449984,39.00,131.00,58.00,1,1,1,
Status,1668689128999,34,12,5,9,1575449984,15.00,228.00,54.00,1,1,1,
Status,1668689128999,34,13,5,10,1575449984,32.00,285.00,53.00,1,1,1,
Status,1668689128999,34,14,1,7,1575449984,38.00,301.00,52.00,1,1,1,
Status,1668689128999,34,15,5,36,1575449984,43.00,128.00,49.00,1,1,1,
Status,1668689128999,34,16,1,27,1176450048,38.00,44.00,46.00,1,1,1,
Status,1668689128999,34,17,1,27,1575449984,44.00,44.00,46.00,1,1,1,
Status,1668689128999,34,18,5,6,1575449984,15.00,206.00,44.00,0,1,1,
Status,1668689128999,34,19,6,2,1575449984,38.00,89.00,43.00,1,1,1,
Status,1668689128999,34,20,1,21,1575449984,40.00,167.00,43.00,1,1,1,
Status,1668689128999,34,21,5,1,1575449984,39.00,146.00,40.00,1,1,1,
Status,1668689128999,34,22,6,36,1575449984,40.00,52.00,36.00,1,1,1,
Status,1668689128999,34,23,6,36,1176450048,17.00,52.00,36.00,1,1,1,
Status,1668689128999,34,24,1,16,1575449984,41.00,84.00,32.00,1,1,1,
Status,1668689128999,34,25,5,4,1575449984,21.00,128.00,31.00,1,1,1,
Status,1668689128999,34,26,5,35,1575449984,16.00,218.00,30.00,0,1,1,
Status,1668689128999,34,27,3,14,1598062464,33.00,120.00,21.00,1,1,1,
Status,1668689128999,34,28,6,27,1575449984,29.00,299.00,20.00,1,1,1,
Status,1668689128999,34,29,1,30,1176450048,35.00,315.00,19.00,1,1,1,
Status,1668689128999,34,30,1,30,1575449984,38.00,315.00,19.00,1,1,1,
Status,1668689128999,34,31,5,26,1575449984,35.00,312.00,17.00,1,1,1,
Status,1668689128999,34,32,1,9,1176450048,11.00,240.00,17.00,1,1,1,
Status,1668689128999,34,33,1,9,1575449984,20.00,240.00,17.00,1,1,1,
OrientationDeg,1668689130132,33210835456820,102,-1,-22
Fix,GPS,37.5346965,122.0740511,16.360529,1.240444,8.000000,107.713226,1668689129999,0.152292,55.393654,33210827759612
Raw,1668689129999,1830611000000,,,-1352722517388746338,0.0,59.76419151700564,,,0,4,0.0,16392,391547916922058,1000000000,7.0,613.3656786268007,2.99792458E8,20,12397.096664613502,3.4028234663852886E38,1.57542003E9,,,,1,,1,48.76445388793945,,,,,,C,
Raw,1668689129999,1830611000000,,,-1352722517388746338,0.0,59.76419151700564,,,0,7,0.0,16427,391547928568051,14,37.96375274658203,-342.14757802540635,0.2430051358229509,20,-6504.944578625924,3.4028234663852886E38,1.57542003E9,,,,0,,1,48.76445388793945,,,,,,C,
Raw,1668689129999,1830611000000,,,-1352722517388746338,0.0,59.76419151700564,,,0,8,0.0,16427,391547932389856,15,37.31374740600586,128.68801106075136,0.27292260965099724,20,3207.8583183612154,3.4028234663852886E38,1.57542003E9,,,,0,,1,48.76445388793945,,,,,,C,
Raw,1668689129999,1830611000000,,,-1352722517388746338,0.0,59.76419151700564,,,0,9,0.0,16392,391547919700095,1000000000,17.40102767944336,513.1425002337157,2.99792458E8,20,3088.2833142860677,3.4028234663852886E38,1.57542003E9,,,,1,,1,48.76445388793945,,,,,,C,
Raw,1668689129999,1830611000000,,,-1352722517388746338,0.0,59.76419151700564,,,0,10,0.0,16392,391547913495528,1000000000,7.0,-306.6974266047921,2.99792458E8,18,-7.981453491320325,3.4028234663852886E38,1.57542003E9,,,,0,,1,48.76445388793945,,,,,,C,
Raw,1668689129999,1830611000000,,,-1352722517388746338,0.0,59.76419151700564,,,0,16,0.0,16427,391547923440736,16,36.27272033691406,477.3129769895461,0.3181266476933806,20,9088.887027768724,3.4028234663852886E38,1.57542003E9,,,,0,,1,48.76445388793945,,,,,,C,
Raw,1668689129999,1830611000000,,,-1352722517388746338,0.0,59.76419151700564,,,0,21,0.0,16427,391547928559087,12,39.724098205566406,-457.81334705669406,0.16384275598468445,20,-8697.838515188121,3.4028234663852886E38,1.57542003E9,,,,0,,1,48.76445388793945,,,,,,C,
Raw,1668689129999,1830611000000,,,-1352722517388746338,0.0,59.76419151700564,,,0,26,0.0,16427,391547916241814,13,39.10521697998047,557.1807490489477,0.19305506578429277,20,16260.450620406358,3.4028234663852886E38,1.57542003E9,,,,0,,1,48.76445388793945,,,,,,C,
Raw,1668689129999,1830611000000,,,-1352722517388746338,0.0,59.76419151700564,,,0,27,0.0,16427,391547928516425,10,43.98895263671875,508.2250152416916,0.15142812134530392,20,16373.425295136505,3.4028234663852886E38,1.57542003E9,,,,0,,1,48.76445388793945,,,,,,C,
Raw,1668689129999,1830611000000,,,-1352722517388746338,0.0,59.76419151700564,,,0,30,0.0,16427,391547919654706,15,37.4459342956543,-590.869962188398,0.2682849824993463,20,-16679.66463700935,3.4028234663852886E38,1.57542003E9,,,,0,,1,48.76445388793945,,,,,,C,
Raw,1668689129999,1830611000000,,,-1352722517388746338,0.0,59.76419151700564,,,0,8,0.0,81929,391547932389864,9,36.75859069824219,128.9601339142436,0.29788736002280136,20,6990.885034411899,3.4028234663852886E38,1.17645005E9,,,,0,,1,10.1537446975708,,,,,,Q,
Raw,1668689129999,1830611000000,,,-1352722517388746338,0.0,59.76419151700564,,,0,9,0.0,16392,391547919699993,1000000000,10.358421325683594,505.0888839222887,2.99792458E8,20,4573.906643979461,3.4028234663852886E38,1.17645005E9,,,,0,,1,10.1537446975708,,,,,,Q,
Raw,1668689129999,1830611000000,,,-1352722517388746338,0.0,59.76419151700564,,,0,26,0.0,81929,391547916241809,11,40.81288146972656,557.5780823270907,0.15281773033070978,20,61970.79961284516,3.4028234663852886E38,1.17645005E9,,,,0,,1,10.1537446975708,,,,,,Q,
Raw,1668689129999,1830611000000,,,-1352722517388746338,0.0,59.76419151700564,,,0,27,0.0,81929,391547928516452,17,35.28199005126953,508.5236457257445,0.3635916794689902,20,52099.67455069685,3.4028234663852886E38,1.17645005E9,,,,0,,1,10.1537446975708,,,,,,Q,
Raw,1668689129999,1830611000000,,,-1352722517388746338,0.0,59.76419151700564,,,0,30,0.0,81929,391547919654702,10,33.44562911987305,-590.4387509484714,0.44817421832932536,20,-58691.98574410159,3.4028234663852886E38,1.17645005E9,,,,0,,1,10.1537446975708,,,,,,Q,
Raw,1668689129999,1830611000000,,,-1352722517388746338,0.0,59.76419151700564,,,0,14,0.0,16393,590615,41,33.470130920410156,599.3352945746205,0.44436277455368756,20,11399.724955863729,3.4028234663852886E38,1.59806246E9,,,,0,,3,61.46733093261719,,,,,,C,
Raw,1668689129999,1830611000000,,,-1352722517388746338,0.0,59.76419151700564,,,0,96,0.0,16393,927593,167,16.2469482421875,517.5104396967661,1.2212689427753087,20,9237.890647253666,3.4028234663852886E38,1.59975002E9,,,,1,,3,61.46733093261719,,,,,,C,
Raw,1668689129999,1830611000000,,,-1352722517388746338,0.0,59.76419151700564,,,0,15,0.0,16427,14573111,33,41.07086181640625,95.68967487686092,0.1525175783844962,20,1819.0548877880437,3.4028234663852886E38,1.602E9,,,,0,,3,61.46733093261719,,,,,,C,
Raw,1668689129999,1830611000000,,,-1352722517388746338,0.0,59.76419151700564,,,0,102,0.0,16427,1297565,33,40.39653396606445,802.6071551714444,0.15012962634889337,20,27396.168020181172,3.4028234663852886E38,1.60312499E9,,,,0,,3,61.46733093261719,,,,,,C,
Raw,1668689129999,1830611000000,,,-1352722517388746338,0.0,59.76419151700564,,,0,17,0.0,16427,14630814,33,38.83875274658203,342.566928570463,0.20474784464528784,20,7505.772126122076,3.4028234663852886E38,1.60424998E9,,,,0,,3,61.46733093261719,,,,,,C,
Raw,1668689129999,1830611000000,,,-1352722517388746338,0.0,59.76419151700564,,,0,105,0.0,16427,18544298,55,30.040958404541016,101.86755467294097,0.6010787357746672,20,1938.2646220821748,3.4028234663852886E38,1.60481254E9,,,,0,,3,61.46733093261719,,,,,,C,
Raw,1668689129999,1830611000000,,,-1352722517388746338,0.0,59.76419151700564,,,0,194,0.0,16427,391547870438333,11,40.92353820800781,-85.17631063695438,0.15177382196510292,20,-1669.5609927489,3.4028234663852886E38,1.57542003E9,,,,0,,4,48.76445388793945,,,,,,C,
Raw,1668689129999,1830611000000,,,-1352722517388746338,0.0,59.76419151700564,,,0,195,0.0,16427,391547873440238,14,40.73506164550781,110.44566590779755,0.15231379924381172,20,2235.1138322844618,3.4028234663852886E38,1.57542003E9,,,,0,,4,48.76445388793945,,,,,,C,
Raw,1668689129999,1830611000000,,,-1352722517388746338,0.0,59.76419151700564,,,0,196,0.0,16392,391547874077518,1000000000,7.0,26.362609708111222,2.99792458E8,18,337.56933747118495,3.4028234663852886E38,1.57542003E9,,,,0,,4,48.76445388793945,,,,,,C,
Raw,1668689129999,1830611000000,,,-1352722517388746338,0.0,59.76419151700564,,,0,194,0.0,81929,391547870438311,9,36.62725830078125,-84.68863328718362,0.30344216804668944,20,-1655.9943937346807,3.4028234663852886E38,1.17645005E9,,,,0,,4,10.1537446975708,,,,,,Q,
Raw,1668689129999,1830611000000,,,-1352722517388746338,0.0,59.76419151700564,,,0,195,0.0,81929,391547873440221,11,32.08160400390625,110.64396616046139,0.5083950233276728,20,2233.078356614851,3.4028234663852886E38,1.17645005E9,,,,0,,4,10.1537446975708,,,,,,Q,
Raw,1668689129999,1830611000000,,,-1352722517388746338,0.0,59.76419151700564,,,0,1,0.0,16393,391533874467752,13,39.251258850097656,19.042997440666483,0.18401005112258906,20,387.590377236798,3.4028234663852886E38,1.56109798E9,,,,0,,5,61.87746810913086,,,,,,C,
Raw,1668689129999,1830611000000,,,-1352722517388746338,0.0,59.76419151700564,,,0,4,0.0,16392,391533871046488,1000000000,15.630045890808105,20.21715297895203,2.99792458E8,20,384.203846452727,3.4028234663852886E38,1.56109798E9,,,,0,,5,61.87746810913086,,,,,,C,
Raw,1668689129999,1830611000000,,,-1352722517388746338,0.0,59.76419151700564,,,0,5,0.0,16392,391533864772833,1000000000,7.0,27.729912657665068,2.99792458E8,20,549.0067557118019,3.4028234663852886E38,1.56109798E9,,,,0,,5,61.87746810913086,,,,,,C,
Raw,1668689129999,1830611000000,,,-1352722517388746338,0.0,59.76419151700564,,,0,6,0.0,16392,391533875265011,1000000000,8.944387435913086,324.8755774508852,2.99792458E8,20,6185.536588883065,3.4028234663852886E38,1.56109798E9,,,,0,,5,61.87746810913086,,,,,,C,
Raw,1668689129999,1830611000000,,,-1352722517388746338,0.0,59.76419151700564,,,0,7,0.0,16393,391533878689769,10,33.46738815307617,0.39841090284491476,0.4470221381046373,20,32.677547070054324,3.4028234663852886E38,1.56109798E9,,,,0,,5,61.87746810913086,,,,,,C,
Raw,1668689129999,1830611000000,,,-1352722517388746338,0.0,59.76419151700564,,,0,9,0.0,16393,391533876670728,44,15.39508056640625,231.61253087537773,1.2593500968827387,20,4432.137963805875,3.4028234663852886E38,1.56109798E9,,,,1,,5,61.87746810913086,,,,,,C,
Raw,1668689129999,1830611000000,,,-1352722517388746338,0.0,59.76419151700564,,,0,10,0.0,16393,391533875572467,12,31.664691925048828,-18.32927671862231,0.5275266644449097,20,-288.2852708422798,3.4028234663852886E38,1.56109798E9,,,,0,,5,61.87746810913086,,,,,,C,
Raw,1668689129999,1830611000000,,,-1352722517388746338,0.0,59.76419151700564,,,0,26,0.0,16393,391533915108480,12,30.98563575744629,-537.0876753831205,0.5579795390499345,20,-9115.827142138058,3.4028234663852886E38,1.56109798E9,,,,0,,5,61.87746810913086,,,,,,C,
Raw,1668689129999,1830611000000,,,-1352722517388746338,0.0,59.76419151700564,,,0,29,0.0,16393,391533927780017,7,37.40764617919922,-70.33943767638206,0.2678708506973101,20,-1179.3464766840711,3.4028234663852886E38,1.56109798E9,,,,0,,5,61.87746810913086,,,,,,C,
Raw,1668689129999,1830611000000,,,-1352722517388746338,0.0,59.76419151700564,,,0,35,0.0,16392,391533919244259,1000000000,11.011783599853516,-523.8444597467912,2.99792458E8,20,-8373.492573906597,3.4028234663852886E38,1.56109798E9,,,,0,,5,61.87746810913086,,,,,,C,
Raw,1668689129999,1830611000000,,,-1352722517388746338,0.0,59.76419151700564,,,0,36,0.0,16393,391533922942745,6,41.520137786865234,391.5378290708718,0.15042553462986608,20,6280.807253023438,3.4028234663852886E38,1.56109798E9,,,,0,,5,61.87746810913086,,,,,,C,
Raw,1668689129999,1830611000000,,,-1352722517388746338,0.0,59.76419151700564,,,0,2,0.0,16392,391547916642445,1000000000,33.745025634765625,276.0647963312206,2.99792458E8,18,2996.5129316696693,3.4028234663852886E38,1.57542003E9,,,,0,,6,48.76445388793945,,,,,,C,
Raw,1668689129999,1830611000000,,,-1352722517388746338,0.0,59.76419151700564,,,0,8,0.0,16392,391547904601406,1000000000,7.0,518.5265399730806,2.99792458E8,18,4.159765252675636,3.4028234663852886E38,1.57542003E9,,,,0,,6,48.76445388793945,,,,,,C,
Raw,1668689129999,1830611000000,,,-1352722517388746338,0.0,59.76419151700564,,,0,15,0.0,16392,391547911992770,1000000000,7.0,-571.0661122486233,2.99792458E8,18,-4.559449963837409,3.4028234663852886E38,1.57542003E9,,,,0,,6,48.76445388793945,,,,,,C,
Raw,1668689129999,1830611000000,,,-1352722517388746338,0.0,59.76419151700564,,,0,27,0.0,16392,391547909869578,1000000000,28.71534538269043,-375.01741482759167,2.99792458E8,18,-0.7490291056699538,3.4028234663852886E38,1.57542003E9,,,,0,,6,48.76445388793945,,,,,,C,
Raw,1668689129999,1830611000000,,,-1352722517388746338,0.0,59.76419151700564,,,0,30,0.0,16392,391547919908927,1000000000,36.28964614868164,-104.336530426524,2.99792458E8,18,-0.6919714430942628,3.4028234663852886E38,1.57542003E9,,,,0,,6,48.76445388793945,,,,,,C,
Raw,1668689129999,1830611000000,,,-1352722517388746338,0.0,59.76419151700564,,,0,34,0.0,16392,391547919699264,1000000000,38.8510856628418,-232.99348384876896,2.99792458E8,18,-1.4565252519645435,3.4028234663852886E38,1.57542003E9,,,,0,,6,48.76445388793945,,,,,,C,
Raw,1668689129999,1830611000000,,,-1352722517388746338,0.0,59.76419151700564,,,0,36,0.0,85034,391547914489691,12,40.06144714355469,306.02545689198837,0.15034405625724123,20,245.6959884530338,3.4028234663852886E38,1.57542003E9,,,,0,,6,48.76445388793945,,,,,,C,
Raw,1668689129999,1830611000000,,,-1352722517388746338,0.0,59.76419151700564,,,0,36,0.0,16392,391547914489698,1000000000,17.356393814086914,303.30976675625084,2.99792458E8,22,1826.571319156229,3.4028234663852886E38,1.17645005E9,,,,0,,6,10.1537446975708,,,,,,Q,
OrientationDeg,1668689130145,33210848789528,102,-1,-22
OrientationDeg,1668689130159,33210862119164,104,-1,-19
OrientationDeg,1668689130172,33210875457810,103,-1,-19
OrientationDeg,1668689130185,33210888789737,103,-1,-19
OrientationDeg,1668689130198,33210902095622,105,-1,-21
OrientationDeg,1668689130212,33210915455153,103,-1,-21
OrientationDeg,1668689130225,33210928789685,103,-1,-21
OrientationDeg,1668689130239,33210942094841,104,-1,-21
OrientationDeg,1668689130252,33210955453278,104,-2,-23
OrientationDeg,1668689130265,33210968788539,104,-2,-23
OrientationDeg,1668689130279,33210982118226,105,-2,-23
OrientationDeg,1668689130292,33210995457653,106,-3,-23
OrientationDeg,1668689130305,33211008784893,106,-3,-23
OrientationDeg,1668689130319,33211022092914,106,-3,-23
OrientationDeg,1668689130332,33211035451872,108,-2,-23
OrientationDeg,1668689130345,33211048796560,108,-2,-23
OrientationDeg,1668689130359,33211062096351,109,-2,-23
OrientationDeg,1668689130372,33211075464060,110,-2,-24
OrientationDeg,1668689130385,33211088795205,110,-2,-24
OrientationDeg,1668689130399,33211102093955,109,-1,-24
OrientationDeg,1668689130412,33211115461664,109,-2,-23
OrientationDeg,1668689130425,33211128794112,109,-2,-23
OrientationDeg,1668689130439,33211142089841,108,-2,-23
OrientationDeg,1668689130452,33211155456612,109,-2,-22
OrientationDeg,1668689130465,33211168792185,109,-2,-22
OrientationDeg,1668689130479,33211182090362,108,-2,-22
OrientationDeg,1668689130492,33211195461560,109,-2,-21
OrientationDeg,1668689130505,33211208795258,109,-2,-21
OrientationDeg,1668689130519,33211222089997,109,-2,-21
OrientationDeg,1668689130532,33211235460935,108,-2,-21
OrientationDeg,1668689130545,33211248791820,108,-2,-21
OrientationDeg,1668689130559,33211262088174,109,-2,-21
OrientationDeg,1668689130572,33211275459372,108,-2,-21
OrientationDeg,1668689130585,33211288788747,108,-2,-21
OrientationDeg,1668689130599,33211302085101,107,-2,-21
OrientationDeg,1668689130612,33211315457185,106,-3,-22
OrientationDeg,1668689130625,33211328793539,106,-3,-22
OrientationDeg,1668689130639,33211342085726,105,-3,-22
OrientationDeg,1668689130652,33211355455049,105,-3,-23
OrientationDeg,1668689130665,33211368789580,105,-3,-23
OrientationDeg,1668689130679,33211382083487,106,-3,-24
OrientationDeg,1668689130692,33211395460466,105,-3,-24
OrientationDeg,1668689130705,33211408788539,105,-3,-24
OrientationDeg,1668689130719,33211422085622,105,-3,-24
OrientationDeg,1668689130732,33211435457810,103,-3,-25
OrientationDeg,1668689130745,33211448790830,103,-3,-25
OrientationDeg,1668689130759,33211462081612,103,-3,-25
OrientationDeg,1668689130772,33211475453330,101,-3,-26
OrientationDeg,1668689130785,33211488745570,101,-3,-26
OrientationDeg,1668689130799,33211502080310,101,-3,-26
OrientationDeg,1668689130812,33211515452758,99,-4,-25
OrientationDeg,1668689130825,33211528785258,99,-4,-25
OrientationDeg,1668689130839,33211542079476,100,-4,-23
OrientationDeg,1668689130852,33211555427341,99,-4,-21
OrientationDeg,1668689130865,33211568780466,99,-4,-21
OrientationDeg,1668689130879,33211582077862,101,-4,-19
OrientationDeg,1668689130892,33211595451664,100,-3,-19
OrientationDeg,1668689130905,33211608781247,100,-3,-19
OrientationDeg,1668689130919,33211622078903,102,-3,-19
OrientationDeg,1668689130932,33211635448955,100,-3,-20
OrientationDeg,1668689130945,33211648779320,100,-3,-20
OrientationDeg,1668689130959,33211662074893,101,-3,-20
OrientationDeg,1668689130972,33211675449997,99,-3,-21
OrientationDeg,1668689130985,33211688781091,99,-3,-21
OrientationDeg,1668689130999,33211702076195,100,-3,-21
OrientationDeg,1668689131012,33211715446247,98,-4,-22
OrientationDeg,1668689131025,33211728788018,98,-4,-22
OrientationDeg,1668689131039,33211742075518,99,-4,-23
OrientationDeg,1668689131052,33211755456612,100,-4,-24
OrientationDeg,1668689131065,33211768779737,100,-4,-24
OrientationDeg,1668689131079,33211782070362,100,-4,-24
Status,1668689129999,34,0,5,29,1575449984,40.00,181.00,81.00,1,1,1,
Status,1668689129999,34,1,1,8,1176450048,38.00,347.00,78.00,1,1,1,
Status,1668689129999,34,2,1,8,1575449984,39.00,347.00,78.00,1,1,1,
Status,1668689129999,34,3,4,194,1575449984,41.00,93.00,72.00,1,1,1,
Status,1668689129999,34,4,4,194,1176450048,36.00,93.00,72.00,1,1,1,
Status,1668689129999,34,5,6,30,1575449984,36.00,345.00,67.00,1,1,1,
Status,1668689129999,34,6,3,15,1602000000,41.00,74.00,66.00,1,1,1,
Status,1668689129999,34,7,5,7,1575449984,34.00,298.00,66.00,1,1,1,
Status,1668689129999,34,8,4,195,1575449984,42.00,134.00,64.00,1,1,1,
Status,1668689129999,34,9,4,195,1176450048,36.00,134.00,64.00,1,1,1,
Status,1668689129999,34,10,3,17,1604249984,42.00,42.00,63.00,1,1,1,
Status,1668689129999,34,11,6,34,1575449984,39.00,131.00,58.00,1,1,1,
Status,1668689129999,34,12,5,9,1575449984,16.00,228.00,54.00,1,1,1,
Status,1668689129999,34,13,5,10,1575449984,32.00,285.00,53.00,1,1,1,
Status,1668689129999,34,14,1,7,1575449984,38.00,301.00,52.00,1,1,1,
Status,1668689129999,34,15,5,36,1575449984,43.00,128.00,49.00,1,1,1,
Status,1668689129999,34,16,1,27,1176450048,38.00,44.00,46.00,1,1,1,
Status,1668689129999,34,17,1,27,1575449984,44.00,44.00,46.00,1,1,1,
Status,1668689129999,34,18,5,6,1575449984,15.00,206.00,44.00,1,1,1,
Status,1668689129999,34,19,6,2,1575449984,42.00,89.00,43.00,1,1,1,
Status,1668689129999,34,20,1,21,1575449984,39.00,167.00,43.00,1,1,1,
Status,1668689129999,34,21,5,1,1575449984,39.00,146.00,40.00,1,1,1,
Status,1668689129999,34,22,6,36,1575449984,40.00,52.00,36.00,1,1,1,
Status,1668689129999,34,23,6,36,1176450048,30.00,52.00,36.00,1,1,1,
Status,1668689129999,34,24,1,16,1575449984,41.00,84.00,32.00,1,1,1,
Status,1668689129999,34,25,5,4,1575449984,21.00,128.00,31.00,1,1,1,
Status,1668689129999,34,26,5,35,1575449984,15.00,218.00,30.00,0,1,1,
Status,1668689129999,34,27,6,15,1575449984,19.00,186.00,23.00,1,1,1,
Status,1668689129999,34,28,3,14,1598062464,34.00,120.00,21.00,1,1,1,
Status,1668689129999,34,29,6,27,1575449984,29.00,299.00,20.00,1,1,1,
Status,1668689129999,34,30,1,30,1176450048,35.00,315.00,19.00,1,1,1,
Status,1668689129999,34,31,1,30,1575449984,38.00,315.00,19.00,1,1,1,
Status,1668689129999,34,32,5,26,1575449984,34.00,312.00,17.00,1,1,1,
Status,1668689129999,34,33,1,9,1575449984,20.00,240.00,17.00,1,1,1,
OrientationDeg,1668689131092,33211795438851,100,-4,-25
Fix,GPS,37.5346939,122.0740860,15.742959,1.102148,6.000000,108.020256,1668689130999,0.167793,23.094393,33211790370862
OrientationDeg,1668689131105,33211808779893,100,-4,-25
Raw,1668689130999,1831611000000,,,-1352722517388746257,0.0,65.76419151700563,,,0,4,0.0,16392,391548916919987,1000000000,7.0,612.0878591668475,2.99792458E8,20,13019.556823900926,3.4028234663852886E38,1.57542003E9,,,,1,,1,48.692569732666016,,,,,,C,
Raw,1668689130999,1831611000000,,,-1352722517388746257,0.0,65.76419151700563,,,0,7,0.0,16427,391548928569203,17,35.806541442871094,-342.2670029530623,0.340012643895665,20,-6847.194735923267,3.4028234663852886E38,1.57542003E9,,,,0,,1,48.692569732666016,,,,,,C,
Raw,1668689130999,1831611000000,,,-1352722517388746257,0.0,65.76419151700563,,,0,8,0.0,16427,391548932389465,13,39.306217193603516,129.06678644131762,0.18332339280296617,20,3336.85497841785,3.4028234663852886E38,1.57542003E9,,,,0,,1,48.692569732666016,,,,,,C,
Raw,1668689130999,1831611000000,,,-1352722517388746257,0.0,65.76419151700563,,,0,9,0.0,16392,391548919698301,1000000000,16.699623107910156,513.1425002337157,2.99792458E8,20,3601.1710589171025,3.4028234663852886E38,1.57542003E9,,,,1,,1,48.692569732666016,,,,,,C,
Raw,1668689130999,1831611000000,,,-1352722517388746257,0.0,65.76419151700563,,,0,10,0.0,16392,391548913496550,1000000000,14.064654350280762,-306.51177946411235,2.99792458E8,18,-7.967056448889872,3.4028234663852886E38,1.57542003E9,,,,0,,1,48.692569732666016,,,,,,C,
Raw,1668689130999,1831611000000,,,-1352722517388746257,0.0,65.76419151700563,,,0,16,0.0,16427,391548923439153,12,40.1060905456543,477.7982770879744,0.1505148513018182,20,9566.529523926192,3.4028234663852886E38,1.57542003E9,,,,0,,1,48.692569732666016,,,,,,C,
Raw,1668689130999,1831611000000,,,-1352722517388746257,0.0,65.76419151700563,,,0,21,0.0,16427,391548928560632,21,33.03573226928711,-457.575656004904,0.4646112817950254,20,-9155.21782102669,3.4028234663852886E38,1.57542003E9,,,,0,,1,48.692569732666016,,,,,,C,
Raw,1668689130999,1831611000000,,,-1352722517388746257,0.0,65.76419151700563,,,0,26,0.0,16427,391548916239970,18,34.84403991699219,557.594987225526,0.38467504047689216,20,16818.115658652874,3.4028234663852886E38,1.57542003E9,,,,0,,1,48.692569732666016,,,,,,C,
Raw,1668689130999,1831611000000,,,-1352722517388746257,0.0,65.76419151700563,,,0,27,0.0,16427,391548928514759,10,44.26830291748047,508.33145475341234,0.1514278217924634,20,16881.77790242251,3.4028234663852886E38,1.57542003E9,,,,0,,1,48.692569732666016,,,,,,C,
Raw,1668689130999,1831611000000,,,-1352722517388746257,0.0,65.76419151700563,,,0,30,0.0,16427,391548919656694,19,34.2531623840332,-590.9764357825752,0.41186072553387776,20,-17270.620443208696,3.4028234663852886E38,1.57542003E9,,,,0,,1,48.692569732666016,,,,,,C,
Raw,1668689130999,1831611000000,,,-1352722517388746257,0.0,65.76419151700563,,,0,8,0.0,81929,391548932389427,9,37.84355545043945,128.8991007552254,0.24909752470282354,20,7119.778119044016,3.4028234663852886E38,1.17645005E9,,,,0,,1,7.849542140960693,,,,,,Q,
Raw,1668689130999,1831611000000,,,-1352722517388746257,0.0,65.76419151700563,,,0,9,0.0,16392,391548919698305,1000000000,7.0,509.65811437356274,2.99792458E8,20,5079.114883077476,3.4028234663852886E38,1.17645005E9,,,,1,,1,7.849542140960693,,,,,,Q,
Raw,1668689130999,1831611000000,,,-1352722517388746257,0.0,65.76419151700563,,,0,26,0.0,81929,391548916239948,9,41.06777572631836,557.4377307711297,0.1528173974942203,20,62528.308250649054,3.4028234663852886E38,1.17645005E9,,,,0,,1,7.849542140960693,,,,,,Q,
Raw,1668689130999,1831611000000,,,-1352722517388746257,0.0,65.76419151700563,,,0,27,0.0,81929,391548928514707,43,35.157020568847656,508.31771952343365,0.36921109105548644,20,52608.14284936821,3.4028234663852886E38,1.17645005E9,,,,1,,1,7.849542140960693,,,,,,Q,
Raw,1668689130999,1831611000000,,,-1352722517388746257,0.0,65.76419151700563,,,0,30,0.0,81929,391548919656674,11,30.30779457092285,-590.4033051936876,0.5892794159533894,20,-59282.50497239251,3.4028234663852886E38,1.17645005E9,,,,0,,1,7.849542140960693,,,,,,Q,
Raw,1668689130999,1831611000000,,,-1352722517388746257,0.0,65.76419151700563,,,0,14,0.0,16393,588707,39,33.99134063720703,599.9370544269873,0.42092419597892317,20,11999.536420540022,3.4028234663852886E38,1.59806246E9,,,,0,,3,61.54985809326172,,,,,,C,
Raw,1668689130999,1831611000000,,,-1352722517388746257,0.0,65.76419151700563,,,0,96,0.0,16393,925866,256,10.915163040161133,518.084763171632,1.4610329002218734,20,9755.822943835992,3.4028234663852886E38,1.59975002E9,,,,1,,3,61.54985809326172,,,,,,C,
Raw,1668689130999,1831611000000,,,-1352722517388746257,0.0,65.76419151700563,,,0,15,0.0,16427,14572813,33,40.00965881347656,95.6336944420222,0.15251752845902278,20,1914.6618312261899,3.4028234663852886E38,1.602E9,,,,0,,3,61.54985809326172,,,,,,C,
Raw,1668689130999,1831611000000,,,-1352722517388746257,0.0,65.76419151700563,,,0,102,0.0,16427,1294886,33,40.99702835083008,802.6982234952734,0.15012914373598363,20,28198.423081220193,3.4028234663852886E38,1.60312499E9,,,,0,,3,61.54985809326172,,,,,,C,
Raw,1668689130999,1831611000000,,,-1352722517388746257,0.0,65.76419151700563,,,0,17,0.0,16427,14629680,33,38.43450164794922,342.7980757906007,0.2229264084748971,20,7848.305280041083,3.4028234663852886E38,1.60424998E9,,,,0,,3,61.54985809326172,,,,,,C,
Raw,1668689130999,1831611000000,,,-1352722517388746257,0.0,65.76419151700563,,,0,105,0.0,16427,18543947,68,27.369367599487305,101.77240497494341,0.7212170651621475,20,2039.5853852464857,3.4028234663852886E38,1.60481254E9,,,,0,,3,61.54985809326172,,,,,,C,
Raw,1668689130999,1831611000000,,,-1352722517388746257,0.0,65.76419151700563,,,0,194,0.0,16427,391548870438627,12,39.982303619384766,-84.90064320798376,0.1525695508023286,20,-1754.4600285030183,3.4028234663852886E38,1.57542003E9,,,,0,,4,48.692569732666016,,,,,,C,
Raw,1668689130999,1831611000000,,,-1352722517388746257,0.0,65.76419151700563,,,0,195,0.0,16427,391548873439888,17,38.38859939575195,110.85114489304942,0.2247764967434993,20,2345.9186087664793,3.4028234663852886E38,1.57542003E9,,,,0,,4,48.692569732666016,,,,,,C,
Raw,1668689130999,1831611000000,,,-1352722517388746257,0.0,65.76419151700563,,,0,196,0.0,16392,391548874077379,1000000000,12.682817459106445,23.577828042541356,2.99792458E8,18,337.52944207571335,3.4028234663852886E38,1.57542003E9,,,,0,,4,48.692569732666016,,,,,,C,
Raw,1668689130999,1831611000000,,,-1352722517388746257,0.0,65.76419151700563,,,0,194,0.0,81929,391548870438606,14,34.24760437011719,-84.35594590845034,0.41045256091418336,20,-1740.7713195644992,3.4028234663852886E38,1.17645005E9,,,,0,,4,7.849542140960693,,,,,,Q,
Raw,1668689130999,1831611000000,,,-1352722517388746257,0.0,65.76419151700563,,,0,195,0.0,81929,391548873439849,14,34.97096252441406,110.55012863703996,0.37846377904480155,20,2343.7638775662726,3.4028234663852886E38,1.17645005E9,,,,0,,4,7.849542140960693,,,,,,Q,
Raw,1668689130999,1831611000000,,,-1352722517388746257,0.0,65.76419151700563,,,0,1,0.0,16393,391534874467721,14,37.92164993286133,19.17261302282273,0.24380109764571922,20,406.65883300886117,3.4028234663852886E38,1.56109798E9,,,,0,,5,59.723304748535156,,,,,,C,
Raw,1668689130999,1831611000000,,,-1352722517388746257,0.0,65.76419151700563,,,0,4,0.0,16392,391534871046446,1000000000,21.035064697265625,20.197877219634847,2.99792458E8,20,404.4229731824812,3.4028234663852886E38,1.56109798E9,,,,0,,5,59.723304748535156,,,,,,C,
Raw,1668689130999,1831611000000,,,-1352722517388746257,0.0,65.76419151700563,,,0,5,0.0,16392,391534864772741,1000000000,7.0,27.729912657665068,2.99792458E8,20,576.7366668978148,3.4028234663852886E38,1.56109798E9,,,,1,,5,59.723304748535156,,,,,,C,
Raw,1668689130999,1831611000000,,,-1352722517388746257,0.0,65.76419151700563,,,0,6,0.0,16392,391534875263928,1000000000,13.304542541503906,324.8755774508852,2.99792458E8,20,6510.4121925811305,3.4028234663852886E38,1.56109798E9,,,,0,,5,59.723304748535156,,,,,,C,
Raw,1668689130999,1831611000000,,,-1352722517388746257,0.0,65.76419151700563,,,0,7,0.0,16393,391534878689776,10,33.097068786621094,1.169519924794657,0.46367497946646763,20,33.51494426987891,3.4028234663852886E38,1.56109798E9,,,,0,,5,59.723304748535156,,,,,,C,
Raw,1668689130999,1831611000000,,,-1352722517388746257,0.0,65.76419151700563,,,0,9,0.0,16393,391534876670071,41,16.48000717163086,232.39492774731536,1.210562125447102,20,4665.127412877082,3.4028234663852886E38,1.56109798E9,,,,0,,5,59.723304748535156,,,,,,C,
Raw,1668689130999,1831611000000,,,-1352722517388746257,0.0,65.76419151700563,,,0,10,0.0,16393,391534875572534,12,31.31354522705078,-18.22270726753608,0.5433172928807406,20,-306.40233786195563,3.4028234663852886E38,1.56109798E9,,,,0,,5,59.723304748535156,,,,,,C,
Raw,1668689130999,1831611000000,,,-1352722517388746257,0.0,65.76419151700563,,,0,26,0.0,16393,391534915110300,10,33.51384735107422,-537.2458179813864,0.44428908455491656,20,-9652.956139390373,3.4028234663852886E38,1.56109798E9,,,,0,,5,59.723304748535156,,,,,,C,
Raw,1668689130999,1831611000000,,,-1352722517388746257,0.0,65.76419151700563,,,0,29,0.0,16393,391534927780279,6,40.34456253051758,-69.9583020857016,0.1512956857061396,20,-1249.2544227529354,3.4028234663852886E38,1.56109798E9,,,,0,,5,59.723304748535156,,,,,,C,
Raw,1668689130999,1831611000000,,,-1352722517388746257,0.0,65.76419151700563,,,0,35,0.0,16392,391534919246006,1000000000,7.805795669555664,-523.8444597467912,2.99792458E8,20,-8898.742801471257,3.4028234663852886E38,1.56109798E9,,,,0,,5,59.723304748535156,,,,,,C,
Raw,1668689130999,1831611000000,,,-1352722517388746257,0.0,65.76419151700563,,,0,36,0.0,16393,391534922941492,6,42.968505859375,391.66983042498464,0.1504253182861479,20,6672.557272649703,3.4028234663852886E38,1.56109798E9,,,,0,,5,59.723304748535156,,,,,,C,
Raw,1668689130999,1831611000000,,,-1352722517388746257,0.0,65.76419151700563,,,0,2,0.0,16392,391548916641519,1000000000,42.27485275268555,276.2504434719003,2.99792458E8,18,2996.5028699319955,3.4028234663852886E38,1.57542003E9,,,,0,,6,48.692569732666016,,,,,,C,
Raw,1668689130999,1831611000000,,,-1352722517388746257,0.0,65.76419151700563,,,0,8,0.0,16392,391548904599677,1000000000,14.972789764404297,518.3408928324009,2.99792458E8,18,4.138757804807146,3.4028234663852886E38,1.57542003E9,,,,0,,6,48.692569732666016,,,,,,C,
Raw,1668689130999,1831611000000,,,-1352722517388746257,0.0,65.76419151700563,,,0,15,0.0,16392,391548911994676,1000000000,18.85248374938965,-571.0661122486233,2.99792458E8,18,-4.537120888527241,3.4028234663852886E38,1.57542003E9,,,,0,,6,48.692569732666016,,,,,,C,
Raw,1668689130999,1831611000000,,,-1352722517388746257,0.0,65.76419151700563,,,0,27,0.0,16392,391548909870827,1000000000,28.361833572387695,-375.01741482759167,2.99792458E8,18,-0.7343656689845168,3.4028234663852886E38,1.57542003E9,,,,0,,6,48.692569732666016,,,,,,C,
Raw,1668689130999,1831611000000,,,-1352722517388746257,0.0,65.76419151700563,,,0,30,0.0,16392,391548919909266,1000000000,35.63197708129883,-104.150866244616,2.99792458E8,18,-0.6873449815550821,3.4028234663852886E38,1.57542003E9,,,,0,,6,48.692569732666016,,,,,,C,
Raw,1668689130999,1831611000000,,,-1352722517388746257,0.0,65.76419151700563,,,0,34,0.0,16392,391548919700040,1000000000,37.97564697265625,-232.99348384876896,2.99792458E8,18,-1.4474150478919279,3.4028234663852886E38,1.57542003E9,,,,0,,6,48.692569732666016,,,,,,C,
Raw,1668689130999,1831611000000,,,-1352722517388746257,0.0,65.76419151700563,,,0,36,0.0,85034,391548914488688,13,39.023284912109375,306.41270176300054,0.19426564202200702,20,551.9121803720419,3.4028234663852886E38,1.57542003E9,,,,0,,6,48.692569732666016,,,,,,C,
Raw,1668689130999,1831611000000,,,-1352722517388746257,0.0,65.76419151700563,,,0,36,0.0,16392,391548914488646,1000000000,30.392467498779297,309.59467398642664,2.99792458E8,20,2130.7913990489405,3.4028234663852886E38,1.17645005E9,,,,0,,6,7.849542140960693,,,,,,Q,
OrientationDeg,1668689131119,33211822069424,100,-4,-25
OrientationDeg,1668689131132,33211835439893,101,-4,-25
OrientationDeg,1668689131145,33211848772341,101,-4,-25
OrientationDeg,1668689131159,33211862069841,98,-6,-26
OrientationDeg,1668689131172,33211875441143,99,-7,-27
OrientationDeg,1668689131185,33211888766560,99,-7,-27
OrientationDeg,1668689131199,33211902098747,98,-9,-27
OrientationDeg,1668689131212,33211915434320,99,-10,-28
OrientationDeg,1668689131225,33211928780778,99,-10,-28
OrientationDeg,1668689131239,33211942103330,97,-13,-29
OrientationDeg,1668689131252,33211955437653,98,-14,-28
OrientationDeg,1668689131265,33211968773226,98,-14,-28
OrientationDeg,1668689131279,33211982104320,99,-15,-27
OrientationDeg,1668689131292,33211995440205,100,-15,-26
OrientationDeg,1668689131305,33212008771299,100,-15,-26
OrientationDeg,1668689131319,33212022100101,101,-15,-26
OrientationDeg,1668689131332,33212035437758,102,-15,-28
OrientationDeg,1668689131345,33212048770258,102,-15,-28
OrientationDeg,1668689131359,33212062099841,100,-15,-28
OrientationDeg,1668689131372,33212075438278,102,-16,-28
OrientationDeg,1668689131385,33212088767862,102,-16,-28
OrientationDeg,1668689131399,33212102099789,102,-16,-28
OrientationDeg,1668689131412,33212115436924,105,-15,-28
OrientationDeg,1668689131425,33212128768539,105,-15,-28
OrientationDeg,1668689131439,33212142099997,104,-15,-28
OrientationDeg,1668689131452,33212155437393,107,-14,-28
OrientationDeg,1668689131465,33212168771403,107,-14,-28
OrientationDeg,1668689131479,33212182102289,107,-13,-28
OrientationDeg,1668689131492,33212195450622,109,-13,-28
OrientationDeg,1668689131505,33212208765830,109,-13,-28
OrientationDeg,1668689131519,33212222094424,110,-13,-28
OrientationDeg,1668689131532,33212235425310,110,-12,-27
OrientationDeg,1668689131545,33212248764268,110,-12,-27
OrientationDeg,1668689131559,33212262094945,110,-12,-27
OrientationDeg,1668689131571,33212275431768,111,-12,-26
OrientationDeg,1668689131585,33212288759789,111,-12,-26
OrientationDeg,1668689131599,33212302096612,110,-12,-26
OrientationDeg,1668689131612,33212315432445,110,-12,-26
OrientationDeg,1668689131624,33212328767289,110,-12,-26
OrientationDeg,1668689131639,33212342098435,110,-12,-26
OrientationDeg,1668689131652,33212355427758,110,-12,-26
OrientationDeg,1668689131665,33212368763070,110,-12,-26
OrientationDeg,1668689131679,33212382093903,109,-12,-26
OrientationDeg,1668689131692,33212395429737,109,-12,-26
OrientationDeg,1668689131705,33212408759893,109,-12,-26
OrientationDeg,1668689131719,33212422091039,108,-12,-26
OrientationDeg,1668689131732,33212435427393,108,-12,-27
OrientationDeg,1668689131745,33212448756976,108,-12,-27
OrientationDeg,1668689131759,33212462089737,108,-12,-27
OrientationDeg,1668689131772,33212475429893,108,-12,-28
OrientationDeg,1668689131785,33212488718383,108,-12,-28
OrientationDeg,1668689131799,33212502106039,107,-12,-28
OrientationDeg,1668689131812,33212515426508,108,-12,-27
OrientationDeg,1668689131825,33212528781299,108,-12,-27
OrientationDeg,1668689131839,33212542091664,108,-12,-27
OrientationDeg,1668689131852,33212555425414,108,-11,-27
OrientationDeg,1668689131865,33212568760414,108,-11,-27
OrientationDeg,1668689131879,33212582104372,107,-11,-27
OrientationDeg,1668689131892,33212595423226,106,-11,-27
OrientationDeg,1668689131905,33212608777028,106,-11,-27
OrientationDeg,1668689131919,33212622088383,108,-6,-26
OrientationDeg,1668689131932,33212635422705,107,-6,-25
OrientationDeg,1668689131945,33212648757445,107,-6,-25
OrientationDeg,1668689131959,33212662083122,109,-4,-23
OrientationDeg,1668689131972,33212675415883,108,-4,-22
OrientationDeg,1668689131985,33212688739997,108,-4,-22
OrientationDeg,1668689131999,33212702076612,108,-3,-22
OrientationDeg,1668689132012,33212715412966,107,-3,-22
OrientationDeg,1668689132025,33212728746455,107,-3,-22
OrientationDeg,1668689132039,33212742075258,108,-3,-22
OrientationDeg,1668689132052,33212755412393,106,-3,-23
OrientationDeg,1668689132065,33212768744320,106,-3,-23
OrientationDeg,1668689132079,33212782073383,106,-3,-23
OrientationDeg,1668689132092,33212795410778,105,-4,-23
OrientationDeg,1668689132105,33212808743435,105,-4,-23
Status,1668689130999,33,0,5,29,1575449984,40.00,181.00,81.00,1,1,1,
Status,1668689130999,33,1,1,8,1176450048,38.00,347.00,78.00,1,1,1,
Status,1668689130999,33,2,1,8,1575449984,39.00,347.00,78.00,1,1,1,
Status,1668689130999,33,3,4,194,1575449984,42.00,93.00,72.00,1,1,1,
Status,1668689130999,33,4,4,194,1176450048,37.00,93.00,72.00,1,1,1,
Status,1668689130999,33,5,6,30,1575449984,36.00,345.00,67.00,1,1,1,
Status,1668689130999,33,6,3,15,1602000000,41.00,74.00,66.00,1,1,1,
Status,1668689130999,33,7,5,7,1575449984,34.00,298.00,66.00,1,1,1,
Status,1668689130999,33,8,4,195,1575449984,41.00,134.00,64.00,1,1,1,
Status,1668689130999,33,9,4,195,1176450048,36.00,134.00,64.00,1,1,1,
Status,1668689130999,33,10,3,17,1604249984,41.00,42.00,63.00,1,1,1,
Status,1668689130999,33,11,6,34,1575449984,39.00,131.00,58.00,1,1,1,
