     3.03           OBSERVATION DATA    M                   RINEX VERSION / TYPE
GnssLogger          Xiaomi 10           20221117 131344 UTC PGM / RUN BY / DATE
Google GnssLogger                                           MARKER NAME
G    8 C1C L1C D1C S1C C5Q L5Q D5Q S5Q                      SYS / # / OBS TYPES
R    4 C1C L1C D1C S1C                                      SYS / # / OBS TYPES
C    4 C2C L2C D2C S2C                                      SYS / # / OBS TYPES
E    8 C1C L1C D1C S1C C5Q L5Q D5Q S5Q                      SYS / # / OBS TYPES
  2022    11    17    13    13   44.0000000     GPS         TIME OF FIRST OBS
 5 R09 -2 R105  5 R14 -7 R15  0 R17  4                       GLONASS SLOT / FRQ #
                                                            END OF HEADER
> 2022 11 17 13 13 44.9996593  0 12                      
G09  24849119.61213     48154.95713     -2813.08513        20.74113                    151789.90713     -2102.30813        23.41613
G10  25387527.98026    -17406.45126      1075.00226        39.34926                    -50561.68226       802.79826        38.36826
G16  23672537.94326    114364.67626     -2699.51626        37.81226                                                                
G21  20676249.93014    -69723.13114      1507.66214        24.26314                                                                
G27  22219038.58026    170974.83226     -2935.54426        38.27926                                                                
R14                     67240.70013     -3646.11713        18.72613
R09  24222173.83825   -120692.57725      3802.63225        31.99625
R15                     31921.64314     -1447.16514        24.71714
R17  20231443.96325    116077.23425     -2864.30725        33.02825
R105                     46558.32412     -1634.69612        14.76012
E02                     44441.15924     -1681.35924        25.43124                    249076.35923     -1271.87023        22.73423
E30                     -2164.08713       329.38113        20.15813                                                                
> 2022 11 17 13 13 45.9996593  0 12                      
G09  24849646.94713     50967.62613     -2814.52413        20.75013                    153891.67524     -2101.76824        24.35224
G10  25387320.82426    -18481.46526      1075.01426        40.12626                    -51364.46826       802.78626        38.01926
G16  23673050.28826    117063.88726     -2699.21126        37.32026                                                                
G21  20675965.42714    -71230.94814      1507.94714        24.11014                                                                
G27  22219597.39326    173910.02326     -2935.19126        38.61226                                                                
R14                     70885.95812     -3648.96012        16.09912
R09  24221448.34025   -124495.65125      3803.07425        32.14125
R15                     33366.52514     -1445.31114        25.00414
R17  20232025.56025    118941.53225     -2864.29825        33.55325
R105                     48189.59012     -1628.79412        15.05612
E02                     46122.29424     -1681.13524        25.68524                    250348.15813     -1271.59413        23.47013
E30                     -2481.95213       333.00213        19.83513                                                                
> 2022 11 17 13 13 46.9996591  0 13                      
G09                     53779.37613     -2814.33713        19.93613                    155992.59914     -2100.96614        24.37214
G10  25387086.68626    -19557.08926      1075.62426        39.09826                    -52167.63826       803.17026        37.76626
G16  23673530.25626    119762.31126     -2698.42526        38.88926                                                                
G21  20675652.74323    -72739.35423      1508.40623        23.50023                                                                
G27  22220129.22526    176844.28126     -2934.25826        41.08726                                                                
R14                     74541.76512     -3651.03512        16.00712
R09  24220704.85525   -128299.70725      3804.05625        32.47125
R15                     34811.99114     -1445.57414        24.28514
R17  20232516.92025    121805.59225     -2864.06025        33.61625
R105                     49819.10813     -1630.84013        20.71013
E02                     47802.62324     -1680.32924        25.09124                    251619.44213     -1271.65713        23.23913
E27                     -5272.98613      2047.87413        22.00313                                                                
E30                     -2817.12413       336.35113        19.46813                                                                
> 2022 11 17 13 13 47.9996591  0 13                      
G09  24850687.22724     56588.90624     -2809.53024        26.08924                    158091.59014     -2099.67814        23.90514
G10  25386881.32826    -20633.80326      1076.71426        36.60226                    -52969.04615       798.90115        32.64415
G16  23674039.30426    122460.64026     -2698.32926        39.60826                                                                
G21  20675368.24013    -74246.93013      1511.88913        20.60913                                                                
G27  22220678.44427    179776.94627     -2932.66527        42.11327                                                                
R14                     78188.28612     -3645.02212        16.74012
R09  24219993.74715   -132106.04615      3808.41315        30.00215
R15                     36255.23814     -1443.96614        24.39714
R17  20233049.35126    124670.06726     -2864.47526        37.52826
R105                     51451.36513     -1625.55613        22.78313
E02                     49485.23714     -1672.13914        28.87514                    252891.43024     -1271.98824        26.60224
E27                     -7310.54913      2049.86113        20.55513                                                                
E30                     -3153.14424       336.02024        25.03124                                                                
> 2022 11 17 13 13 48.9996591  0 13                      
G09  24851192.67713     59395.21613     -2801.72413        21.36813                    160196.22513     -2105.87513        18.70413
G10  25386649.28815    -21707.50015      1072.03215        32.77515                    -53771.37314       794.46714        29.20314
G16  23674521.96915    125160.47915     -2701.54015        35.16615                                                                
G21                    -75754.87712      1510.06012        15.41512                                                                
G27  22221204.58016    182714.35016     -2930.45516        36.49416                                                                
R14                     81827.95311     -3637.28311        11.69011
R09  24219251.76114   -135913.11614      3803.69614        25.84714
R15                     37701.03614     -1443.08714        24.83814
R17  20233547.30725    127535.73425     -2865.66625        34.45925
R105                     53076.92413     -1623.19013        18.45813
E02                     51166.59424     -1681.35724        29.40224                    254163.60223     -1272.17223        23.37923
E27                     -9356.23212      2051.74012        17.07312                                                                
E30                     -3487.16814       333.00714        28.53914                                                                
> 2022 11 17 13 13 49.9996591  0 13                      
G09                     62193.47312     -2788.93212        16.03612                    162296.53012     -2096.50212        13.37212
G10  25386439.13414    -22780.73114      1069.10914        28.28414                    -54572.80414       795.34014        24.39514
G16  23675036.11415    127859.99015     -2698.88215        30.17215                                                                
G21                    -77269.69311      1514.23711        10.28911                                                                
G27  22221761.29515    185649.67415     -2935.33315        31.42715                                                                
R14                     85461.92711     -3639.96211        11.20611
R09  24218538.85413   -139716.74513      3797.16613        21.20413
R15                     39142.32413     -1448.13613        22.33913
R17  20234089.33114    130401.38314     -2865.27114        29.42514
R105                     54696.27512     -1623.04212        13.12612
E02                     52848.35224     -1681.75824        28.58224                    255435.50113     -1245.86713        18.34813
E27                    -11426.19212      2058.37612        16.52112                                                                
E30                     -3820.73914       333.34114        26.91714                                                                
> 2022 11 17 13 13 50.9996590  0 13                      
G09                     64972.06411     -2791.19311        10.70411                    164396.95811     -2096.57811        10.22811
G10                    -23849.43913      1041.18513        23.14913                    -55373.86123       801.05723        20.74723
G16  23675514.28324    130559.97324     -2699.98324        27.16824                                                                
G21                    -78785.98511      1513.73811         9.98511                                                                
G27  22222293.72625    188585.53425     -2935.86025        29.99525                                                                
R14                     89090.84611     -3628.14511        10.34611
R09                   -143516.81512      3790.97612        16.61412
R15                     40591.76113     -1452.28013        20.81113
R17  20234595.38114    133268.41514     -2866.55314        26.53714
R105                     56319.29211     -1622.24311         9.17411
E02                     54530.27524     -1681.92324        28.21824                    256708.51112     -1269.80712        15.34912
E27                    -13510.28812      2065.83012        15.83712                                                                
E30                     -4153.98524       333.24724        26.39424                                                                
> 2022 11 17 13 13 51.9996590  0 13                      
G09                     67740.04211     -2778.97511         9.84411                    166489.45411     -2094.25311        12.47011
G10                    -24916.05013      1064.10913        18.89913                    -56175.15213       803.56013        18.14113
G16  23676024.22914    133259.63614     -2699.91414        25.15214                                                                
G21                    -80303.15511      1516.24111         9.59611                                                                
G27  22222854.33825    191521.14625     -2935.61225        29.75425                                                                
R14                     92714.46011     -3624.55911         9.48611
R09                   -147313.70812      3790.63412        16.36912
R15                     42044.87613     -1443.34413        19.41513
R17  20235129.01214    136135.68414     -2871.24214        25.47614
R105                     57955.45311     -1631.50211         8.31411
E02                     56212.15424     -1681.87924        27.53124                    257980.83312     -1274.96112        13.66012
E27                    -15578.11412      2064.35912        15.01612                   -277559.29711     20824.19011         7.00011
E30                     -4487.32724       333.34124        26.62624                                                                
> 2022 11 17 13 13 52.9996589  0 14                      
G09                     70506.86411     -2770.24811         9.01911                    168584.59511     -2096.04411         7.41811
G10                    -25979.77212      1063.87912        16.82112                    -56976.39513       805.18913        18.95313
G16  23676513.79114    135959.15814     -2701.17314        24.04914                                                                
G21                    -81821.16811      1517.37511         9.11611                                                                
G27  22223380.77424    194456.56924     -2935.42324        29.04524                                                                
R14                     96332.80611     -3628.32811         8.62611
R09                   -151102.59512      3795.50712        14.56512
R15                     43483.30213     -1437.72813        18.88613
R17  20235641.05724    139002.92824     -2867.24424        26.13024
R105                     59612.21411     -1646.87611         7.45311
E02                     57893.78224     -1681.62824        27.50224                    259252.77012     -1266.33812        15.71612
E27                    -17647.99712      2060.57612        14.15612                   -278892.64411      1688.16911         7.00011
E30                     -4820.92824       333.60224        26.82624                                                                
E36                      4529.59114     -2170.64114        24.04214                                                                
> 2022 11 17 13 13 53.9996588  0 14                      
G09                     73266.43111     -2763.17511         8.34311                    170680.32011     -2094.65311         7.00011
G10                    -27044.04812      1067.21512        16.87712                    -57777.36113       804.03213        17.58213
G16  23676998.55524    138658.34124     -2699.18324        24.00124                                                                
G21                    -83341.50311      1517.38211         8.67811                                                                
G27  22223910.80724    197391.70024     -2935.13224        28.77324                                                                
R14                     99945.86411     -3616.36511         7.76511
R09                   -154898.74512      3806.92512        15.71512
R15                     44918.84613     -1444.58313        17.50913
R17  20236151.00424    141870.41824     -2867.49024        25.69324
R105                     61282.48011     -1664.03111         7.45011
E02                     59575.25924     -1681.47724        27.52924                    260524.70412     -1264.47312        16.46812
E27                    -19721.56412      2057.87112        13.40612                   -280455.53811      1561.55811         9.13911
E30                     -5154.72524       333.79724        26.38824                                                                
E36                      6698.66613     -2168.77813        23.49613                                                                
> 2022 11 17 13 13 54.9996588  0 14                      
G09                     76018.10211     -2755.12611         8.03211                    172776.63311     -2096.00611         7.00011
G10                    -28107.12413      1070.56013        19.85713                    -58578.27613       799.06013        17.81913
G16  23677513.29924    141357.46924     -2699.12724        23.58524                                                                
G21                    -84862.59011      1511.86411         7.81811                                                                
G27  22224466.32224    200326.79724     -2935.09624        28.65324                                                                
R14                    103553.68211     -3616.11411         7.00011
R09                   -158707.29012      3815.95512        15.63712
R15                     46365.73413     -1455.74413        19.28413
R17  20236678.93924    144738.27024     -2867.85224        25.65324
R105                     62964.51011     -1677.06011         7.00011
E02                     61256.68324     -1681.42424        28.17924                    261797.13211     -1265.81111        11.41711
E27                    -21780.61412      2040.45812        12.54612                   -282024.46111      1571.28711         7.93511
E30                     -5488.46624       333.74124        26.41124                                                                
E36                      8862.76013     -2174.05213        21.86113                                                                
> 2022 11 17 13 13 55.9996587  0 14                      
G09                     78759.01611     -2741.40711         7.17211                    174874.33711     -2097.75911         8.70111
G10  25385103.25913    -29179.24313      1069.97013        20.92313                    -59378.64413       798.33813        18.34513
G16  23677996.86423    144056.83323     -2699.36423        23.16523                                                                
G21                    -86374.10611      1503.35511         7.00011                                                                
G27  22224995.75624    203261.34124     -2934.54424        27.81424                                                                
R14                    107155.70711     -3612.48211         7.83711
R09                   -162525.06512      3811.55612        12.88212
R15                     47820.45813     -1456.31413        18.72813
R17  20237173.89614    147606.05714     -2872.75114        24.39014
R105                     64675.75111     -1694.07811         7.00011
E02                     62938.34824     -1681.66524        28.69924                    263068.99712     -1259.65312        12.82512
E27                    -23799.74611      2028.78911        11.68511                   -283624.66411      1589.85711         7.00011
E30                     -5822.10924       333.64324        25.92324                                                                
E36                     11021.85613     -2179.39813        21.10413                                                                
> 2022 11 17 13 13 56.9996587  0 14                      
G09                     81481.87111     -2730.53011         7.00011                    176982.10311     -2100.37011         7.00011
G10  25384902.39813    -30253.15713      1067.92813        20.55913                    -60178.75713       798.73813        18.58713
G16  23678508.31013    146756.53413     -2699.43513        23.41613                                                                
G21                    -87882.32711      1504.36811         7.00011                                                                
G27  22225556.36714    206198.28514     -2936.72414        28.30814                                                                
R14                    110765.50111     -3608.85011         7.42911
R09                   -166340.66412      3809.68612        13.24912
R15                     49279.44413     -1453.21713        18.91413
R17  20237705.72813    150475.22613     -2870.88813        23.09813
R105                     66403.61311     -1713.50311         7.00011
E02                     64620.41824     -1682.06924        28.63624                    264341.34711     -1252.13311        10.42511
E27                    -25817.40811      2016.26711        10.91411                   -285242.47711      1608.02111        10.00611
E30                     -6155.23224       333.12324        26.72424                                                                
E36                     13177.62113     -2180.33413        22.72613                                                                
> 2022 11 17 13 13 57.9996586  0 14                      
G09                     84196.07811     -2712.46911         7.38011                    179090.92511     -2109.26811        11.99411
G10  25384658.66613    -31324.27613      1074.80013        21.47713                    -60978.79213       800.70113        18.41413
G16  23678987.37813    149456.29413     -2702.98313        22.88213                                                                
G21                    -89388.64511      1513.27611         7.00011                                                                
G27  22226088.79914    209132.25914     -2938.17414        26.54914                                                                
R14                    114388.79211     -3616.56311         7.65211
R09                   -170153.70612      3806.54012        13.46212
R15                     50737.93113     -1451.47313        18.32313
R17  20238210.57813    153344.85613     -2868.38113        22.32713
R105                     68146.42511     -1729.60711         7.00011
E02                     66302.51224     -1682.09424        28.63224                    265613.84311     -1256.46911        10.79811
E27                    -27827.29511      2003.74411        10.05411                   -286885.97911      1628.13511         7.00011
E30                     -6488.30224       333.07024        26.92024                                                                
E36                     15332.09513     -2182.38313        20.82013                                                                
> 2022 11 17 13 13 58.9996586  0 14                      
G09                     86900.18211     -2697.36511         7.27011                    181196.11611     -2104.51611        10.88911
G10  25384466.50013    -32394.51813      1071.52913        21.62813                    -61778.42713       800.05513        18.24213
G16  23679506.91813    152155.88513     -2697.77813        22.71313                                                                
G21                    -90906.31611      1534.67511         7.00011                                                                
G27  22226644.01524    212067.70424     -2935.44624        25.54724                                                                
R14                    118026.63911     -3640.41211         7.48511
R09                   -173957.78212      3803.00512        12.66712
R15                     52184.94713     -1452.23613        20.02813
R17  20238741.21113    156214.75613     -2869.82413        22.64613
R105                     69891.77111     -1738.23411         7.00011
E02                     67984.62224     -1682.11024        28.23524                    266886.53611     -1265.95611        10.07011
E27                    -29824.72311      1991.22111        10.28811                   -288546.29511      1654.29111         8.74911
E30                     -6821.41724       333.11524        26.70024                                                                
E36                     17488.61413     -2145.87213        20.00613                                                                
> 2022 11 17 13 13 59.9996585  0 14                      
G09                     89588.16911     -2672.13011         7.42411                    183298.02811     -2092.86511        10.69211
G10  25384217.67213    -33464.74113      1068.61913        21.40413                    -62577.84713       798.01113        17.93213
G16  23679985.68723    154855.61623     -2699.73223        23.06223                                                                
G21                    -92448.40411      1550.56711         7.00011                                                                
G27  22227184.24114    215003.31814     -2935.31014        24.63914                                                                
R14                    121670.38111     -3638.09511         7.47211
R09                   -177758.44011      3802.00111        12.41611
R15                     53634.42713     -1451.30313        19.42813
R17  20239280.83713    159085.10113     -2872.94813        23.00413
R105                     71648.51011     -1745.92511         7.00011
E02                     69666.84324     -1682.22124        27.83124                    268159.29711     -1259.98311         8.15811
E27                    -31809.56611      1978.69811         9.63811                   -290227.69111      1672.99711         7.00011
E30                     -7154.45324       333.03624        26.75624                                                                
E36                     19643.18813     -2147.57613        19.16413                                                                
> 2022 11 17 13 14 00.9996585  0 12                      
G09                     92249.28311     -2652.47411         7.78011                    185397.99011     -2094.99711         7.68511
G10  25384012.01413    -34534.62213      1067.85313        21.11213                    -63376.71612       797.08912        16.35412
G16  23680507.32613    157555.89413     -2702.96713        22.58413                                                                
G21                    -94002.79211      1570.71811         7.00011                                                                
G27  22227731.96124    217939.43024     -2936.11124        24.70724                                                                
R09                   -181555.50612      3800.47212        12.63112
R15                     55081.35113     -1453.01213        19.17313
R17  20239795.58114    161956.25814     -2874.13514        24.15314
E02                     71349.47124     -1682.62724        27.58124                    269434.42311     -1269.09111         8.28811
E27                    -33781.94811      1966.17511         8.77811                   -291954.06711      1702.37611         9.29711
E30                     -7486.92524       332.47224        26.44924                                                                
E36                     21792.94113     -2152.20613        18.55713                                                                
> 2022 11 17 13 14 01.9996584  0 12                      
G08                     15497.00214     -1289.33114        28.75714                                                                
G10  25383785.37113    -35603.56313      1070.35413        21.77113                    -64174.99012       796.57112        16.59512
G16  23680988.49313    160256.61913     -2703.66913        22.27013                                                                
G21                    -95581.84711      1590.94311         7.00011                                                                
G27  22228249.10314    220876.02414     -2936.10614        24.41314                                                                
R09                   -185349.69912      3801.49112        13.04312
R15                     56535.20413     -1458.41013        18.34313
R17  20240330.41114    164831.93314     -2876.26614        23.52414
E02                     73032.72124     -1683.25024        27.94524                    270708.53811     -1274.92511         9.74311
E27                    -35741.70711      1949.93211         8.82911                   -293721.51411      1735.30811         7.00011
E30                     -7818.78124       331.85624        26.14824                                                                
E36                     23938.78013     -2157.78113        17.71613                                                                
> 2022 11 17 13 14 02.9996584  0 10                      
G08                     16783.76814     -1290.86014        29.21914                                                                
G10  25383585.70913    -36672.00213      1071.29913        22.22113                    -64972.77013       799.50013        17.57613
G16  23681497.84013    162957.53813     -2696.19113        22.39613                                                                
G27  22228814.81214    223812.99514     -2937.59614        24.82314                                                                
R09                   -189139.52312      3798.79412        13.32012
R15                     57999.16913     -1461.68113        17.64413
R17  20240836.16113    167710.58613     -2875.00413        23.14913
E02                     74716.47524     -1683.75424        28.25724                    271981.90011     -1279.26011        11.38511
E30                     -8150.18424       331.40324        25.85624                                                                
E36                     26086.18312     -2169.60512        17.33812                                                                
> 2022 11 17 13 14 03.9996583  0 10                      
G08                     18075.97325     -1292.20425        29.54125                                                                
G10  25383363.56313    -37739.48313      1070.70713        22.58813                    -65769.99212       797.87912        15.86712
G16  23681984.40313    165659.24613     -2701.49513        22.64313                                                                
G27  22229344.54524    226750.44924     -2937.45424        25.02024                                                                
R09                   -192938.51912      3808.54612        13.07412
R15                     59461.79512     -1456.24412        16.65212
R17  20241355.70113    170582.66113     -2874.22813        23.07913
E02                     76400.72524     -1684.25024        27.95824                    273256.61511     -1284.70911        11.09611
E30                     -8481.21624       331.03224        26.58724                                                                
E36                     28259.91413     -2180.83413        19.64513                                                                
> 2022 11 17 13 14 04.9996583  0 10                      
G08                     19367.60625     -1291.63325        29.78925                                                                
G10  25383145.61413    -38807.38713      1066.53213        22.17713                    -66567.37712       794.05112        14.89912
G16  23682501.84513    168360.15413     -2702.86613        22.97313                                                                
G27  22229904.25814    229687.18814     -2937.40514        24.28114                                                                
R09                   -196748.96611      3814.10111        12.49211
R15                     60918.45213     -1458.74813        17.52313
R17  20241901.02414    173456.13814     -2870.49314        23.50214
E02                     78084.20024     -1683.47424        28.19024                    274527.57611     -1282.11811         8.77511
E30                     -8812.74324       331.52724        26.97224                                                                
E36                     30448.42923     -2188.51523        19.25323                                                                
> 2022 11 17 13 14 05.9996582  0 10                      
G08                     20659.68324     -1292.07724        29.42524                                                                
G10  25382921.06913    -39874.85613      1064.26713        22.02913                    -67364.61512       801.02312        16.67012
G16  23682972.81923    171061.17323     -2701.01923        23.13023                                                                
G27  22230434.59014    232624.12814     -2937.18914        24.09014                                                                
R09                   -200566.30811      3809.05611        11.76311
R15                     62374.83113     -1454.40613        18.81513
R17  20242399.87813    176330.43713     -2874.58613        23.02813
E02                     79767.91524     -1683.71524        28.12024                    275795.79011     -1284.46411        11.66911
E30                     -9144.12224       331.37924        26.70224                   -124894.86911      4835.76211         7.00011
E36                     32653.83813     -2195.04213        18.08413                                                                
> 2022 11 17 13 14 06.9996582  0 10                      
G08                     21951.56825     -1291.88525        29.63025                                                                
G10  25382719.60913    -40942.13313      1068.23513        22.32613                    -68161.43413       798.35613        18.40813
G16  23683497.75613    173762.48513     -2701.41113        23.31813                                                                
G27  22230993.10414    235561.17614     -2940.34114        24.10014                                                                
R09                   -204376.15011      3801.53811        11.97911
R15                     63831.73713     -1459.72213        18.12613
R17  20242948.49813    179205.05813     -2875.85813        23.23613
E02                     81451.99224     -1684.07724        28.10924                    277065.03811     -1276.14311        11.14211
E30                     -9475.16024       331.03824        26.59424                   -125066.72811       120.44311         7.00011
E36                     34857.45622     -2203.61822        15.95422                                                                
> 2022 11 17 13 14 07.9996581  0 10                      
G08                     23244.20325     -1292.63525        29.69525                                                                
G10  25382477.37713    -42008.62913      1068.58013        21.82913                    -68958.09013       797.90313        18.37013
G16  23683980.12224    176463.68024     -2701.19524        23.83824                                                                
G27  22231522.53714    238498.25114     -2937.06814        24.15014                                                                
R09                   -208176.46711      3794.38911        12.45811
R15                     65288.95713     -1461.35413        18.62613
R17  20243441.65713    182080.09313     -2874.79813        23.25613
E02                     83136.00424     -1684.01224        27.85224                    278338.49111     -1275.01311        12.01411
E30                     -9806.24524       331.08524        26.19524                   -125395.19911       296.54811         7.00011
E36                     37051.61312     -2190.60412        16.63512                                                                
> 2022 11 17 13 14 08.9996581  0 10                      
G08                     24537.14025     -1292.93725        29.69125                                                                
G10  25382275.61614    -43075.70914      1067.68314        23.75114                    -69754.29313       796.11113        18.66813
G16  23684492.76713    179165.11213     -2701.34013        23.49613                                                                
G27  22232082.84914    241435.35314     -2937.46514        24.40814                                                                
R09                   -211971.79711      3803.50211        11.81911
R15                     66746.89812     -1461.58012        16.66612
R17  20243966.89313    184955.53013     -2877.47513        22.44813
E02                     84820.17324     -1684.16924        28.07024                    279612.48612     -1265.19312        13.50012
E30                    -10137.12024       330.87524        26.02624                   -125594.69411       333.95811         7.54311
E36                     39245.80212     -2187.06912        15.93112                                                                
> 2022 11 17 13 14 09.9996580  0 10                      
G08                     25830.19425     -1293.05425        29.71425                                                                
G10  25382039.97913    -44146.12713      1065.10213        21.49713                    -70550.54113       796.70713        19.16713
G16  23684985.02613    181866.48213     -2703.61813        22.95813                                                                
G27  22232608.38514    244372.48514     -2937.42014        24.34314                                                                
R09                   -215775.85711      3795.47111        12.03111
R15                     68207.77013     -1459.16813        17.67213
R17  20244491.83013    187832.01613     -2877.33613        23.01113
E02                     86504.34224     -1684.16924        28.27724                    280886.51412     -1264.94812        16.03912
E30                    -10468.03324       330.91224        25.84624                   -125846.05111       371.34911        11.11511
E36                     41439.51112     -2182.85212        16.34612                                                                
> 2022 11 17 13 14 10.9996580  0 10                      
G08                     27123.68825     -1293.49325        29.83025                                                                
G10  25381838.51913    -45219.59013      1065.50813        20.47813                    -71346.26913       798.52613        19.26013
G16  23685501.56813    184567.97213     -2702.19713        23.40813                                                                
G27  22233171.39613    247309.66413     -2938.15413        22.33613                                                                
R09                   -219570.66311      3800.39311        11.37311
R15                     69670.89213     -1456.64313        19.26713
R17  20245038.95113    190708.54513     -2878.25413        22.80213
E02                     88188.76324     -1684.42024        28.54824                    282160.77112     -1269.96912        14.74512
E30                    -10798.69824       330.66524        26.55824                   -126111.72912       249.13912        13.80912
E36                     43632.73123     -2193.22023        18.56923                                                                
> 2022 11 17 13 14 11.9996579  0 10                      
G08                     28417.64525     -1293.95725        29.75825                                                                
G10  25381595.68713    -46284.62213      1065.41813        20.34813                    -72141.66113       794.50613        19.07413
G16  23685980.93713    187269.63513     -2701.44513        23.00413                                                                
G27  22233693.93413    250250.30213     -2931.66213        20.41113                                                                
R09                   -223361.60311      3791.66911        11.18111
R15                     71132.07913     -1458.93713        19.10713
R17  20245527.01313    193585.54813     -2877.07213        22.73013
E02                     89873.49524     -1684.73324        28.67924                    283435.24412     -1273.51212        14.48212
E30                    -11129.10424       330.40624        26.85624                   -126362.96712       251.20412        14.70812
E36                     45825.22412     -2174.87212        17.10012                                                                
> 2022 11 17 13 14 12.9996579  0 10                      
G08                     29711.69325     -1294.04825        29.59825                                                                
G10  25381389.13013    -47350.53113      1065.66313        20.42313                    -72936.87713       793.24913        18.78413
G16  23686490.88413    189971.33713     -2703.56813        22.68213                                                                
G27  22234255.14513    253180.75313     -2934.29413        20.32813                                                                
R09                   -227151.95211      3793.34911        11.35411
R15                     72588.83113     -1466.59413        19.27013
R17  20246056.44713    196462.95213     -2878.28813        22.72913
E02                     91558.13124     -1684.63624        28.24024                    284709.87511     -1270.79411        11.93011
E30                    -11459.42324       330.31924        26.39524                   -126607.92512       244.29412        14.48112
E36                     48017.05612     -2171.31712        15.24112                                                                
> 2022 11 17 13 14 13.9996578  0 10                      
G08  20481777.86025     31005.60825     -1293.91525        29.74225                                                                
G10  25381155.29213    -48421.24113      1065.68513        20.60813                    -73732.25613       792.94913        20.31313
G16  23686983.44313    192672.42413     -2698.91013        22.76713                                                                
G27  22234783.68013    256117.85213     -2936.83613        21.04713                                                                
R09                   -230953.59311      3794.65411        11.98611
R15                     74057.29013     -1461.47013        18.97313
R17  20246588.57824    199340.32324     -2877.37124        23.73824
E02                     93242.38824     -1684.25724        28.13224                    285983.72112     -1264.68612        14.09412
E30                    -11790.25724       330.83424        27.13924                   -126852.28312       249.64112        15.27712
E36                     50208.23312     -2170.12012        16.54112                                                                
> 2022 11 17 13 14 14.9996578  0 10                      
G08  20482025.48925     32299.44725     -1293.83825        29.83425                                                                
G10  25380961.92613    -49489.43813      1064.59913        20.54313                    -74527.46613       798.58913        19.84313
G16  23687486.19513    195373.47513     -2697.75713        22.57513                                                                
G27  22235318.50913    259054.59113     -2937.19313        20.33913                                                                
R09                   -234758.54411      3798.44211        11.72311
R15                     75523.48613     -1458.79913        19.34313
R17  20247119.21113    202218.93913     -2879.64613        23.09613
E02                     94926.47524     -1684.08724        28.06224                    287256.99412     -1257.47412        13.59012
E30                    -12121.08724       330.83124        27.07124                   -127107.68812       247.82612        15.34912
E36                     52398.95212     -2169.95312        15.95812                                                                
> 2022 11 17 13 14 15.9996577  0 10                      
G08  20482240.14025     33593.79825     -1294.35225        29.97025                                                                
G10                    -50550.49213      1059.50313        19.38113                    -75322.31113       797.86013        19.65913
G16  23687974.25713    198074.86313     -2703.39913        22.34013                                                                
G27                    261991.67713     -2934.47213        19.83413                                                                
R09                   -238568.20411      3809.84011        11.24511
R15                     76983.31013     -1461.55513        19.95713
R17  20247603.67613    205103.80713     -2879.14513        23.05413
E02                     96610.87724     -1684.40224        27.88424                    288528.54211     -1265.64511        11.95211
E30                    -12451.78324       330.69524        27.41924                   -127355.22712       247.61412        15.72012
E36                     54589.71412     -2170.84912        16.00212                                                                
> 2022 11 17 13 14 16.9996577  0 11                      
G08  20482485.67025     34888.25425     -1294.45525        29.93625                                                                
G10                    -51605.65012      1061.86012        16.79512                    -76116.97213       794.08313        18.58213
G16  23688482.10513    200776.26913     -2703.99813        22.22813                                                                
G27  22236422.34513    264928.62713     -2931.45813        20.82013                                                                
G30                    -75278.37213      2650.30613        18.98513                                                                
R09                   -242381.13311      3823.78311        11.16811
R15                     78439.41013     -1462.97813        19.49213
R17  20248167.58513    207983.60313     -2876.49113        22.95613
E02                     98295.27524     -1684.39824        28.19424                    289800.43212     -1274.88612        13.37412
E30                    -12782.30824       330.52524        27.16024                   -127600.61412       249.68912        15.91112
E36                     56780.08612     -2172.57612        15.52712                                                                
> 2022 11 17 13 14 17.9996576  0 11                      
G08  20482704.21925     36182.28525     -1294.03125        29.88525                                                                
G10                    -52668.02812      1059.56812        17.05412                    -76911.75513       788.95613        19.31513
G16  23688971.96623    203476.72823     -2700.45923        23.38523                                                                
G27  22236953.57713    267864.83813     -2937.07613        22.48513                                                                
G30                    -77932.43013      2646.05213        18.31013                                                                
R09                   -246209.23111      3829.19511        11.27811
R15                     79897.96713     -1467.80213        18.77513
R17  20248651.15114    210861.94814     -2879.21414        24.09314
E02                     99979.08224     -1683.80724        28.37624                    291068.98812     -1284.74512        13.50812
E30                    -13113.45824       331.15024        26.68524                   -127859.18612       253.30912        15.90012
E36                     58970.18513     -2176.90713        17.50513                                                                
> 2022 11 17 13 14 18.9996575  0 11                      
G08  20482920.96925     37477.12025     -1294.83525        29.78825                                                                
G10                    -53732.85712      1062.59912        16.41712                    -77706.23913       790.07513        18.75413
G16  23689453.43324    206177.92924     -2701.20124        23.72124                                                                
G27  22237490.50613    270801.88613     -2935.25713        22.56713                                                                
G30                    -80580.31113      2646.76213        19.12913                                                                
R09                   -250033.33511      3807.21111        12.03611
R15                     81367.73313     -1466.55713        17.87813
R17  20249161.39714    213741.14214     -2881.00014        23.70514
E02                    101663.49924     -1684.41724        28.32324                    292338.45412     -1280.05912        13.57812
E30                    -13444.11624       330.65824        26.94424                   -128105.56912       259.45712        13.83712
E36                     61160.32313     -2181.60013        17.50713                                                                
> 2022 11 17 13 14 19.9996575  0 11                      
G08  20483165.89925     38772.94325     -1295.82325        29.98425                                                                
G10                    -54795.35413      1065.00313        17.74413                    -78499.71313       795.00213        18.92113
G16  23689970.27513    208879.95313     -2698.78013        22.76413                                                                
G27  22238052.31713    273739.55713     -2937.55613        23.02613                                                                
G30                    -83227.22713      2644.73413        17.77313                                                                
R09                   -253834.82611      3802.65511        12.48811
R15                     82841.45712     -1471.97712        16.72812
R17  20249719.61114    216621.64014     -2879.45714        24.02814
E02                    103348.74124     -1685.24224        28.46524                    293612.27012     -1279.02512        14.70612
E30                    -13773.81324       329.69824        26.54824                   -128355.40312       262.09112        13.90312
E36                     63350.30312     -2186.25112        15.35512                                                                
> 2022 11 17 13 14 20.9996574  0 11                      
G08  20483382.05025     40068.73225     -1295.78925        30.00925                                                                
G10                    -55857.82113      1067.61713        17.93513                    -79293.16113       794.59113        20.22813
G16  23690455.93913    211581.71913     -2700.53613        22.71613                                                                
G27  22238567.96013    276677.03713     -2937.58413        23.12313                                                                
G30                    -85873.98413      2647.28813        19.11613                                                                
R09                   -257636.44611      3810.48311        12.19911
R15                     84317.88513     -1468.86213        17.92013
R17  20250219.96414    219502.36914     -2879.13514        23.88614
E02                    105033.76024     -1685.01924        28.29624                    294891.41712     -1272.88812        13.15012
E30                    -14103.70924       329.89624        26.99324                   -128618.53712       263.26912        14.20712
E36                     65540.19812     -2189.57012        16.55012                                                                
> 2022 11 17 13 14 21.9996574  0 11                      
G08  20483628.77925     41365.07925     -1296.34725        30.06125                                                                
G10                    -56919.60213      1059.51613        17.58213                    -80086.16113       796.46213        20.16413
G16  23690970.08313    214283.84013     -2700.57713        22.69513                                                                
G27  22239133.96814    279614.80814     -2937.91914        23.54814                                                                
G30                    -88520.33313      2646.31813        19.11113                                                                
R09                   -261451.33411      3818.19811        11.78811
R15                     85785.67313     -1459.94913        18.15213
R17  20250777.87814    222383.73214     -2881.20314        23.74414
E02                    106719.27024     -1685.51024        27.87924                    296175.44112     -1272.31712        13.25912
E30                    -14433.14614       328.90714        27.28614                   -128868.57111       256.55211        10.90711
E36                     67729.89012     -2190.98812        17.25612                                                                
> 2022 11 17 13 14 22.9996573  0 11                      
G08  20483846.12825     42662.11625     -1297.03725        30.19025                                                                
G10                    -57980.89513      1062.77513        18.46413                    -80878.62513       797.43413        19.86513
G16  23691446.45313    216986.45513     -2703.19013        23.13813                                                                
G27  22239666.99914    282553.09314     -2938.89714        23.95414                                                                
G30                    -91165.77813      2642.06813        19.58413                                                                
R09                   -265278.60011      3835.06511        11.71911
R15                     87251.53613     -1460.10513        18.34713
R17  20251268.63814    225266.06414     -2882.77914        24.37114
E02                    108405.21824     -1685.94824        28.18824                    297460.64512     -1280.11812        14.38612
E30                    -14762.12924       328.98424        27.23324                   -129125.92211       248.79211        11.78411
E36                     69919.31812     -2191.91912        16.67012                                                                
> 2022 11 17 13 14 23.9996573  0 11                      
G08  20484094.65625     43959.92825     -1297.81125        30.07325                                                                
G10                    -59041.11113      1062.65713        17.98413                    -81670.32413       794.71613        19.11013
G16  23691962.09623    219689.57223     -2703.11723        23.26623                                                                
G27  22240223.11413    285491.88613     -2938.73113        23.37713                                                                
G30                    -93810.39913      2642.54713        19.07713                                                                
R09                   -269118.39711      3855.79811        11.42811
R15                     88719.06713     -1468.82413        18.23613
R17  20251806.76614    228149.17014     -2883.14814        24.02014
E02                    110091.88324     -1686.66524        28.47924                    298744.84311     -1286.69311        12.31411
E30                    -15090.54124       328.41224        26.97024                   -129362.19912       248.23212        14.94812
E36                     72108.46812     -2192.86612        17.36012                                                                
> 2022 11 17 13 14 24.9996572  0 11                      
G08  20484312.60525     45257.93725     -1298.00925        29.91425                                                                
G10                    -60101.22813      1060.11513        18.61213                    -82461.86813       788.99813        18.21113
G16  23692449.25924    222392.82124     -2703.24924        23.52324                                                                
G27  22240763.34014    288430.73314     -2938.74914        23.71314                                                                
G30                    -96453.36513      2644.46613        18.87613                                                                
R09                   -272981.66011      3868.73111        11.34411
R15                     90191.71312     -1471.48512        16.28212
R17  20252322.70924    231032.75924     -2883.58924        24.70624
E02                    111778.48324     -1686.60024        28.47424                    300021.84312     -1284.14012        14.18312
E30                    -15418.72824       328.18724        26.52424                   -129608.38212       254.50512        15.03712
E36                     74297.01612     -2192.92412        16.98112                                                                
> 2022 11 17 13 14 25.9996572  0 11                      
G08  20484555.73725     46555.79425     -1297.85725        29.55525                                                                
G10                    -61161.25913      1055.80413        17.57313                    -83253.37413       786.09313        18.55013
G16  23692963.70313    225095.52313     -2702.68113        23.10913                                                                
G27  22241314.95824    291369.13524     -2938.40224        24.03224                                                                
G30                    -99093.83813      2644.93813        19.25713                                                                
R09                   -276861.49111      3889.37611        10.56011
R15                     91662.37312     -1466.57612        17.02912
R17  20252863.83414    233916.25814     -2885.04214        24.13614
E02                    113464.70124     -1686.21724        28.54324                    301286.68212     -1270.93612        13.89212
E30                    -15747.44524       328.71724        26.80124                   -129854.23212       247.36312        13.23912
E36                     76484.85512     -2192.25012        16.95312                                                                
> 2022 11 17 13 14 26.9996571  0 11                      
G08  20484774.88525     47853.84225     -1298.04825        29.58225                                                                
G10                    -62221.48112      1057.89212        16.77112                    -84044.92513       788.60413        18.78513
G16  23693449.06713    227798.31513     -2702.71713        23.33313                                                                
G27  22241842.29314    294307.57114     -2938.07714        24.46914                                                                
G30                   -101738.42313      2640.56613        18.94513                                                                
R09                   -280755.43711      3891.77711        10.58811
R15                     93129.70612     -1470.71612        16.34312
R17  20253371.68324    236800.32624     -2884.06824        25.06324
E02                    115151.00724     -1686.30724        28.74924                    302537.60411     -1263.44211        12.01011
E30                    -16076.01224       328.56724        26.71924                   -130104.96112       247.03512        13.36312
E36                     78671.42512     -2190.61612        17.43612                                                                
> 2022 11 17 13 14 27.9996571  0 11                      
G08  20485021.61525     49151.81925     -1297.97725        29.78425                                                                
G10                    -63284.99413      1056.76113        18.32013                    -84836.25713       791.22013        19.19413
G16  23693972.20413    230500.82613     -2702.37613        23.23913                                                                
G27  22242397.50924    297245.75224     -2938.18024        23.84224                                                                
G30                   -104382.70413      2642.47313        18.57413                                                                
R09                   -284664.38011      3919.78011        10.16111
R15                     94597.15512     -1474.29112        17.32112
R17  20253913.10824    239684.47924     -2884.15324        24.78424
E02                    116837.16624     -1686.15924        28.76824                    303793.91511     -1268.78711        10.90611
