     3.03           OBSERVATION DATA    M                   RINEX VERSION / TYPE
GnssLogger          Xiaomi 10           20221117 124546 UTC PGM / RUN BY / DATE
Google GnssLogger                                           MARKER NAME
G    8 C1C L1C D1C S1C C5Q L5Q D5Q S5Q                      SYS / # / OBS TYPES
R    4 C1C L1C D1C S1C                                      SYS / # / OBS TYPES
J    8 C1C L1C D1C S1C C5Q L5Q D5Q S5Q                      SYS / # / OBS TYPES
C    4 C2C L2C D2C S2C                                      SYS / # / OBS TYPES
E    8 C1C L1C D1C S1C C5Q L5Q D5Q S5Q                      SYS / # / OBS TYPES
  2022    11    17    12    45   46.0000000     GPS         TIME OF FIRST OBS
 8 R102  2 R105  5 R14 -7 R15  0 R17  4 R19  3 R24  2 R96 -4  GLONASS SLOT / FRQ #
                                                            END OF HEADER
> 2022 11 17 12 45 46.9997464  0 37                      
G04                     61933.57811     -3235.11011         7.00011                                                                
G07  21339076.06515    -32385.57615      1798.22315        34.25315                                                                
G08  20192851.38016     16181.23416      -673.89816        38.55816  20192854.37816     26927.21816      -507.63716        36.32516
G09                     13532.66013     -2696.58213        18.26113                     15962.04211     -1982.07711         9.22211
G10                       -41.86722      1608.77922        15.53622                                                                
G16  22875387.09916     45255.24416     -2505.68916        39.01916                                                                
G21  21341881.22315    -43302.04415      2408.11215        31.89115                                                                
G26  25033485.37916     82523.20016     -2925.85816        40.47016  25033489.87616    240998.63916     -2187.56616        40.77216
G27  21353697.84317     83372.07517     -2670.63617        43.57117  21353700.54115    202454.77315     -1994.19415        33.55315
G30  24011476.10116    -84547.10016      3105.95116        36.83516  24011480.59815   -228002.19815      2318.20115        34.99515
R14                     57574.01714     -3191.45014        25.98614
R96                     46536.64112     -2754.10512        15.39112
R15                      9209.25216      -509.16716        38.82016
R24                    142207.73716     -4291.51816        41.28416
R17                     38331.87116     -1830.51216        39.95316
R105                      9833.39214      -545.77514        28.99114
J02  38765670.78516     -8326.80616       448.58016        39.63616  38765674.68215     -6166.20015       331.38215        31.53415
J04  37865525.64217     11164.35117      -579.53917        42.23417  37865526.54115      8330.10815      -434.25215        32.64215
J02                      2463.34812      -138.53612        13.65412                      1646.68611       -71.94211         7.00011
C01  37557579.72915      1918.75815      -101.82815        32.81615
C04                      1895.39513      -105.46213        20.68213
C05                      2714.42511      -144.39711         7.00011
C06                     30518.00012     -1691.71212        12.88612
C07  36291866.46415       167.94715         0.25115        34.15615
C09                     21870.00311     -1211.71311        10.15211
C10  37226432.87715     -1406.84415        95.94215        30.20415
C26  25374353.60115    -44672.76615      2796.03615        34.91815
C29  21575059.49716     -5774.66816       366.76116        36.30616
C35                    -40880.63512      2727.79612        16.06312
C36  23024773.38117     30666.55817     -2038.56517        43.17217
E02                     15746.75926     -1453.65726        38.89626                                                                
E08                        21.81122     -2728.77822        14.97322                                                                
E15                       -23.87421      2997.07021         7.00021                                                                
E27                        -3.88724      1967.80324        27.35824                                                                
E30                        -3.61525       545.36525        31.19925                                                                
E34                        -7.61726      1221.46226        38.71426                                                                
E36                         6.15726     -1610.73026        39.01926                                                                
> 2022 11 17 12 45 47.9997463  0 37                      
G04                     65147.18311     -3223.25811         7.00011                                                                
G07  21338702.22416    -34183.71416      1797.99816        37.96416                                                                
G08  20192953.90916     16857.40916      -676.26016        37.31416  20192951.51116     27433.73416      -506.06716        36.75916
G09                     16229.03812     -2696.58212        17.40112                     17948.99211     -1982.07711        10.35811
G10                       -41.94321      1611.70621         7.00021                                                                
G16  22875832.59116     47762.42416     -2508.29716        36.27316                                                                
G21  21341389.56316    -45707.45016      2405.82516        39.72416                                                                
G26  25034015.11216     85449.24516     -2928.00516        39.10516  25034016.61116    243186.72916     -2188.05616        40.81316
G27  21354179.30917     86042.93117     -2670.74017        43.98917  21354171.21515    204450.31415     -1995.55615        35.28215
G30  24010855.83016    -87652.22916      3105.04316        37.44616  24010857.03015   -230319.95915      2317.00815        33.44615
R14                     60766.94915     -3194.79415        33.47015
R96                     49295.15412     -2761.53512        16.24712
R15                      9720.47816      -511.33716        41.07116
R102                    146499.62216     -4291.90116        40.39716
R17                     40164.90316     -1833.14516        38.83916
R105                     10375.68215      -545.30515        30.04115
J02  38765553.26616     -8773.60216       447.60516        40.92416  38765559.86116     -6498.47816       332.33616        36.62716
J04  37865604.78716     11745.60216      -580.39616        40.73516  37865609.88415      8763.07915      -434.19115        32.08215
J02                      1773.93921      -138.53621         7.00021                                                                
C01  37557563.84016      2018.28516       -99.16216        39.25116
C04                      2000.65012      -105.27612        15.63012
C05                      2858.82211      -144.39711         7.00011
C06                     32209.71211     -1691.71211         8.94411
C07  36291834.98515       170.16115        -2.07515        33.46715
C09                     23079.30512     -1206.06712        15.39512
C10  37226378.61415     -1501.17715        95.44515        31.66515
C26  25373780.09815    -47468.50415      2796.75615        30.98615
C29  21574948.87416     -6141.16716       366.27616        37.40816
C35                    -43602.97311      2727.79611        11.01211
C36  23025126.53717     32705.81117     -2038.84017        41.52017
E02                     15746.78225     -1450.73025        33.74525                                                                
E08                        21.86021     -2724.87521         7.00021                                                                
E15                       -23.96021      3000.97321         7.00021                                                                
E27                        -3.93624      1970.73024        28.71524                                                                
E30                        -3.63626       548.29226        36.29026                                                                
E34                        -7.65426      1224.38926        38.85126                                                                
E36  25559288.37316      1291.14116     -1608.17516        40.06116                      7261.35212     -1205.77812        17.35612
> 2022 11 17 12 45 48.9997462  0 37                      
G04                     68418.23311     -3216.54311         7.00011                                                                
G07  21338326.88416    -35982.25116      1798.62516        35.80716                                                                
G08  20193041.14916     17535.29116      -678.25116        39.30616  20193052.54116     27939.53916      -505.82816        37.84416
G09                     18924.28112     -2696.58212        16.70012                     19931.53811     -2000.00811         7.00011
G10                       -41.86722      1610.73022        14.06522                                                                
G16  22876277.18316     50272.45216     -2510.84716        40.10616                                                                
G21  21340896.40515    -48110.99415      2404.57615        33.03615                                                                
G26  25034537.95015     88379.79415     -2930.18115        34.84415  25034544.54516    245374.51216     -2187.50516        41.06816
G27  21354648.78417     88714.34117     -2671.30017        44.26817  21354664.37315    206445.65315     -1994.74815        35.15715
G30  24010229.86415    -90757.72315      3105.60215        34.25315  24010235.86015   -232637.28315      2316.86915        30.30815
R14                     63964.28115     -3198.00215        33.99115
R96                     52058.94011     -2764.60011        10.91511
R15                     10231.37216      -511.03716        40.01016
R102                    150789.64016     -4292.38816        40.99716
R17                     41997.86716     -1834.38216        38.43516
R105                     10918.06014      -544.79614        27.36914
J02  38765435.14816     -9219.75016       446.15616        39.98216  38765441.44315     -6831.16115       331.03115        34.24815
J04  37865679.73516     12327.88516      -582.52716        38.38916  37865691.42715      9197.43315      -433.82215        34.97115
J02                      1773.72922      -123.90222        12.68322                                                                
C01  37557543.15416      2117.57916       -99.83716        37.92216
C04                      2105.93713      -105.17613        21.03513
C05                      3003.21911      -144.39711         7.00011
C06                     33901.42512     -1691.71212        13.30512
C07  36291802.90815       174.52115        -6.09015        33.09715
C09                     24292.54312     -1210.14112        16.48012
C10  37226328.54915     -1595.51715        94.89015        31.31415
C26  25373204.49615    -50265.47615      2797.58015        33.51415
C29  21574840.34916     -6505.19616       364.29116        40.34516
C35                    -46338.08911      2727.79611         7.80611
C36  23025472.19717     34745.75717     -2039.52817        42.96917
E02                     15746.72927     -1451.70627        42.27527                                                                
E08                        21.74922     -2723.90022        14.97322                                                                
E15                       -23.84323      3000.97323        18.85223                                                                
E27                        -3.85924      1970.73024        28.36224                                                                
E30                        -3.61226       547.31626        35.63226                                                                
E34                        -7.60626      1224.38926        37.97626                                                                
E36  25559559.08516      2900.31816     -1610.21016        39.02316                      8470.74915     -1230.76315        30.39215
> 2022 11 17 12 45 49.9997461  0 37                      
G04                     71688.28311     -3260.48411         7.00011                                                                
G07  21337952.14316    -37780.86816      1799.12416        37.55116                                                                
G08  20193145.47616     18213.40916      -678.62016        38.71916  20193149.67316     28445.40116      -506.00416        37.94616
G09                     21618.52212     -2694.63112        15.92212                     21926.90211     -1983.35411         7.00011
G10                       -41.89221      1609.75521         7.00021                                                                
G16  22876727.77115     52783.30615     -2511.99315        35.18715                                                                
G21  21340411.34115    -50513.27915      2401.38515        32.58315                                                                
G26  25035064.68516     91309.64316     -2929.75416        35.65016  25035072.18017    247562.35217     -2187.52717        41.88417
G27  21355119.75817     91385.91417     -2671.45517        42.95217  21355135.94716    208440.90516     -1995.50016        38.02816
G30  24009609.89316    -93863.08116      3105.69516        35.50916  24009617.68815   -234955.01715      2317.80515        32.40615
R14                     67161.76615     -3197.95915        34.21215
R96                     54828.01011     -2771.51511         8.80411
R15                     10742.99116      -512.06716        41.11316
R102                    155081.34117     -4292.00817        41.89017
R17                     43831.52016     -1834.18716        39.06016
R105                     11462.74714      -547.46714        28.62714
J02  38765318.52817     -9665.99417       445.83317        41.62917  38765330.82016     -7163.72416       332.59016        37.34016
J04  37865762.47816     12910.68716      -583.41616        37.75516  37865771.47215      9633.27015      -436.73115        31.78915
J02                      1773.73223      -123.90223        20.38023                                                                
C01  37557532.66116      2216.10216       -98.02316        37.56016
C04                      2211.43712      -105.63012        15.98412
C05                      3147.61611      -144.39711         7.00011
C06                     35593.13712     -1691.71212        13.42912
C07  36291770.83015       178.81515        -5.24515        32.05415
C09                     25504.40613     -1212.46413        17.77013
C10  37226281.48215     -1688.80215        93.32415        32.36815
C26  25372638.18815    -53061.36615      2795.58815        32.38415
C29  21574742.61616     -6868.87316       363.30116        37.13016
C35                    -49066.05311      2727.79611         7.00011
C36  23025841.24217     36785.56917     -2039.65517        41.78717
E02                     15746.76326     -1451.70626        38.91526                                                                
E08                        21.81321     -2723.90021         7.00021                                                                
E15                       -23.91321      3000.97321        11.85621                                                                
E27                        -3.90624      1971.70524        26.85424                                                                
E30                        -3.62525       547.31625        34.18825                                                                
E34                        -7.63226      1223.41326        38.76826                                                                
E36  25559836.39316      4509.46516     -1611.34616        39.08916  25559839.69115      9685.85515     -1217.64115        33.71415
> 2022 11 17 12 45 50.9997460  0 37                      
G04                     74948.84911     -3259.07111         7.33411                                                                
G07  21337581.00015    -39581.65415      1799.41615        33.08815                                                                
G08  20193248.00516     18890.79716      -677.18316        39.81916  20193248.90516     28951.59316      -506.12516        37.23016
G09                     24313.67412     -2694.63112        15.54312                     23921.05011     -2000.00811         7.00011
G10                       -41.81721      1608.77921        11.04221                                                                
G16  22877175.96116     55293.00116     -2510.17316        39.19516                                                                
G21  21339927.17615    -52915.64815      2401.48615        33.21615                                                                
G26  25035592.62015     94238.26315     -2928.15815        34.16415  25035599.21517    249749.43417     -2186.67117        42.57617
G27  21355612.31717     94056.28217     -2670.38017        42.59117                    210435.69015     -1996.12815        33.63815
G30  24008993.22015    -96969.30915      3106.00115        34.99115  24008993.81915   -237274.11515      2319.18315        31.75315
R14                     70357.89516     -3196.39516        38.31416
R96                     57601.10611     -2769.40311         8.16211
R15                     11253.31116      -511.32016        39.75416
R102                    159372.85417     -4291.73517        44.09917
R17                     45664.66216     -1833.14816        40.92816
R105                     12009.84215      -548.82315        30.86715
J02  38765207.00616    -10112.84516       446.46416        40.38416  38765212.40215     -7499.36915       333.53515        33.62315
J04  37865847.02016     13492.37716      -582.69516        40.74816  37865851.51615     10068.78015      -435.74415        34.56115
J02                      1773.74122      -124.87822        12.74722                                                                
C01  37557527.86415      2310.79215       -96.88615        34.43315
C04                      2316.75312      -105.45212        13.63512
C05                      3292.01311      -144.39711         7.00011
C06                     37280.25311     -1691.71211         9.63811
C07  36291746.54715       180.47815        -2.78515        33.00515
C09                     26717.27812     -1209.16512        12.71912
C10  37226235.31415     -1782.31815        93.12915        31.37715
C26  25372073.97916    -55858.71616      2797.03816        35.68116
C29  21574653.27816     -7232.07916       362.48116        39.40916
C35                    -51794.42811      2728.38911        11.10311
C36  23026211.78517     38824.90817     -2038.90917        42.37917
E02                     15746.80126     -1452.68126        41.03526                                                                
E08                        21.87721     -2723.90021         7.00021                                                                
E15                       -23.98321      3000.97321         7.00021                                                                
E27                        -3.95224      1971.70524        27.39024                                                                
E30                        -3.63825       547.31625        34.41425                                                                
E34                        -7.65826      1222.43826        37.12426                                                                
E36  25560113.40216      6119.35716     -1611.44216        39.60416  25560118.19816     10902.60416     -1217.02616        36.21416
> 2022 11 17 12 45 51.9997460  0 37                      
G04                     78209.04911     -3259.28711         8.30711                                                                
G07  21337239.83615    -41385.34415      1801.11515        34.29515                                                                
G08  20193375.11716     19567.49416      -677.31016        39.26116  20193376.61616     29457.83116      -506.35016        36.63916
G09                     27007.94512     -2688.27112        15.19412                     25916.24011     -1997.95011         7.00011
G10                       -41.85421      1608.77921        12.12821                                                                
G16  22877655.32916     57798.20616     -2508.23316        37.54516                                                                
G21  21339469.99215    -55316.66815      2405.62515        33.00515                                                                
G26  25036150.23416     97167.10616     -2929.18016        37.20516  25036156.52917    251935.78417     -2186.23317        42.68417
G27  21356114.17017     96726.46217     -2670.81717        43.01317  21356116.56816    212430.99916     -1994.53216        36.53316
G30  24008402.62915   -100077.49015      3106.55615        33.39015  24008400.23015   -239593.67615      2319.85215        31.84815
R14                     73552.92716     -3194.64416        38.14816
R96                     60381.45311     -2775.82511        11.85511
R15                     11765.27516      -512.07216        40.58216
R102                    163663.41717     -4290.71517        43.04217
R17                     47496.97016     -1832.64116        40.25016
R105                     12557.62915      -549.67515        31.41415
J02  38765121.26516    -10562.08816       447.73516        41.10916  38765127.26116     -7836.61416       332.47016        35.89916
J04  37865954.94516     14073.10616      -581.39516        40.35516  37865962.73915     10503.91115      -436.11015        33.56215
J02                      1773.74421      -124.87821         7.00021                                                                
C01  37557546.45215      2402.07615       -95.42615        31.79715
C04                      2422.23811      -105.39711         9.42711
C05                      3436.41011      -144.39711         7.00011
C06                     38963.44211     -1684.00011        12.42511
C07  36291745.34715       182.42115        -0.33215        33.12215
C09                     27929.28811     -1213.38211         9.38911
C10  37226218.52515     -1876.13615        93.84115        32.06815
C26  25371537.35015    -58655.89915      2796.91015        33.52315
C29  21574577.43116     -7595.91916       362.32316        38.68816
C35                    -54521.96912      2726.50012        15.04512
C36  23026588.62417     40864.30817     -2039.38517        42.66817
E02                     15746.74425     -1452.68125        31.78825                                                                
E08                        21.77121     -2723.90021         7.00021                                                                
E15                       -23.86223      2999.99723        22.34323                                                                
E27                        -3.87524      1971.70524        26.71424                                                                
E30                        -3.61626       547.31626        38.14526                                                                
E34                        -7.61026      1222.43826        39.13126                                                                
E36  25560418.29116      7728.03516     -1609.75016        38.25816  25560425.48615     12119.79415     -1216.43915        34.89615
> 2022 11 17 12 45 52.9997459  0 37                      
G04                     81468.02912     -3255.99712        14.22912                                                                
G07  21336868.09416    -43184.55516      1799.23816        36.95016                                                                
G08  20193472.25016     20244.89816      -677.41716        38.17416  20193476.14716     29964.65616      -507.09116        37.38816
G09                     29701.60912     -2693.83812        14.33312                     27910.90411     -2000.00811         7.00011
G10                       -41.89221      1608.77921         7.00021                                                                
G16  22878097.82215     60306.37515     -2508.13515        33.98215                                                                
G21  21338977.43315    -57716.79215      2401.32315        32.88415                                                                
G26  25036677.86916    100095.38116     -2929.60416        36.01016  25036682.96517    254121.93217     -2187.03417        42.80517
G27  21356589.34117     99397.20817     -2671.30717        43.51517  21356597.43516    214425.18216     -1994.41716        37.41516
G30  24007779.66015   -103188.36115      3107.09315        34.01415  24007781.15915   -241911.90715      2320.34715        30.76415
R14                     76749.27516     -3195.06116        38.66516
R96                     63156.32712     -2771.66912        13.77312
R15                     12276.97716      -511.70416        40.70716
R102                    167953.17316     -4289.77416        39.98716
R17                     49330.00416     -1832.55816        38.15016
R105                     13108.24714      -550.56614        27.25914
J02  38765005.84517    -11010.60417       448.94217        42.21617  38765012.14116     -8170.47416       334.06316        36.67616
J04  37866036.18916     14654.05416      -580.80416        40.33916  37866042.48415     10938.12915      -435.10415        32.40615
J02                      1773.74721      -124.87821         8.71021                                                                
C01  37557534.46014      2490.45114       -95.87614        27.91214
C04                      2527.32212      -105.68512        15.14012
C05                      3580.80711      -144.39711         7.00011
C06                     40649.18211     -1685.85811         7.37411
C07  36291711.77115       183.99115        -0.09615        32.17815
C09                     29141.29912     -1211.03712        14.90712
C10  37226169.05915     -1970.55615        94.63615        32.75415
C26  25370970.14315    -61453.99215      2799.15315        31.86415
C29  21574476.40116     -7959.48916       364.37116        37.99616
C35                    -57249.23012      2725.45212        15.65412
C36  23026957.06917     42904.07417     -2039.38017        42.42217
E02                     15746.77826     -1452.68126        36.25426                                                                
E08                        21.83422     -2723.90022        16.56322                                                                
E15                       -23.93321      2999.99721         7.00021                                                                
E27                        -3.92224      1971.70524        26.09724                                                                
E30                        -3.62925       547.31625        33.71125                                                                
E34                        -7.63626      1221.46226        37.87326                                                                
E36  25560693.50016      9332.51616     -1609.08116        36.42816  25560702.49415     13337.78515     -1217.10415        34.51015
> 2022 11 17 12 45 53.9997458  0 37                      
G04                     84725.87112     -3259.97012        14.83012                                                                
G07  21336497.85016    -44983.51716      1798.60416        39.04316                                                                
G08  20193573.58016     20921.38116      -676.11316        37.02116  20193576.57816     30471.05616      -507.03916        35.89116
G09                     32395.24612     -2693.38112        13.96412                     29907.27711     -1997.96911         7.00011
G10                       -41.85421      1610.73021         7.00021                                                                
G16  22878554.40615     62814.61215     -2509.39315        32.80715                                                                
G21  21338495.06716    -60117.57616      2402.58416        38.36116                                                                
G26  25037209.40115    103024.09715     -2929.38015        34.95915  25037211.79917    256308.31917     -2186.44717        42.42117
G27  21357070.50816    102066.86616     -2669.88616        39.70016  21357073.80516    216418.63616     -1992.99816        39.30816
G30  24007159.38915   -106295.97815      3108.02115        34.50615  24007162.08815   -244230.67615      2321.01715        31.84815
R14                     79946.95316     -3195.30216        39.95016
R96                     65931.84212     -2771.51612        15.49012
R15                     12787.54817      -510.67117        42.64217
R102                    172242.63016     -4289.32816        40.11316
R17                     51162.21016     -1831.88816        38.31216
R105                     13659.50014      -549.65414        29.22314
J02  38764889.82516    -11460.89816       450.62416        41.36116  38764896.12116     -8505.91716       335.52516        38.11116
J04  37866117.43216     15233.20016      -578.89616        38.56716  37866120.73015     11372.15215      -434.74015        29.81715
J02                      1773.71521      -122.92721        11.97821                                                                
C01  37557523.36814      2575.99014       -95.17414        25.77314
C04                      2620.24712      -105.44912        14.06212
C05                      3725.20411      -144.39711         7.00011
C06                     42333.43412     -1691.92812        12.96412
C07  36291682.99115       182.64615         1.88815        32.03415
C09                     30351.84612     -1214.19712        16.05212
C10  37226122.89115     -2066.11415        95.41215        32.87715
C26  25370405.33414    -64255.68314      2802.85114        29.31014
C29  21574377.76916     -8325.31816       367.49916        36.43316
C35                    -59977.70312      2728.62612        14.70212
C36  23027319.21916     44943.08716     -2038.94016        35.89516
E02                     15746.71425     -1450.73025        32.78225                                                                
E08                        21.72021     -2721.94921         7.00021                                                                
E15                       -23.81922      3000.97322        14.54822                                                                
E27                        -3.97024      1973.65724        24.17524                                                                
E30                        -3.61326       549.26826        38.53626                                                                
E34                        -7.59426      1223.41326        39.00826                                                                
E36  25560970.80815     10934.61015     -1608.96615        32.01715  25560978.60315     14553.57215     -1215.08015        30.42215
> 2022 11 17 12 45 54.9997458  0 37                      
G04                     87985.64912     -3257.17712        16.08212                                                                
G07                    -46783.77216      1798.42616        36.59516                                                                
G08                     21597.26116      -675.20816        40.40416                     30976.69316      -506.16616        36.91216
G09                     35088.49512     -2697.72012        13.10412                     31903.17911     -2000.00811         7.00011
G10                       -41.89221      1610.73021         7.00021                                                                
G16                     65321.27016     -2507.02216        38.49016                                                                
G21                    -62522.67716      2406.16016        39.59016                                                                
G26                    105950.77616     -2926.89016        35.59616                    258493.35416     -2185.30416        40.63116
G27                    104735.14217     -2668.37817        42.02617                    218408.97816     -1990.90516        35.70816
G30                   -109405.95416      3110.04216        35.85616                   -246552.09415      2321.62315        30.36515
R14                     83141.28616     -3194.44016        41.49616
R96                     68707.64312     -2774.78012        15.30512
R15                     13296.89316      -509.82616        37.68316
R102                    176532.46916     -4288.83916        39.86516
R17                     52994.20016     -1831.62216        41.43816
R105                     14210.12815      -549.43115        29.99515
J02                    -11912.62916       452.21416        40.24016                     -8843.46715       338.20115        34.35715
J04                     15811.23917      -577.86717        41.76017                     11804.15616      -432.38916        35.66516
J02                      1773.70422      -121.95122        12.93622                                                                
C01                      2658.40013       -93.21613        22.67213
C04                      2707.07111       -90.09511        11.19611
C05                      3868.04311      -144.39711         7.00011
C06                     44017.17611     -1683.41111        11.76711
C07                       179.12915         3.36715        34.67115
C09                     31563.17912     -1212.79212        15.53912
C10                     -2160.98315        96.49115        32.95515
C26                    -67058.19915      2803.77515        31.68915
C29                     -8691.07516       366.46716        41.11816
C35                    -62705.32711      2729.35511        11.51511
C36                     46980.86916     -2037.34616        39.59216
E02                     15746.74826     -1450.73026        38.56626                                                                
E08                        21.77621     -2719.99721         7.00021                                                                
E15                       -23.89724      3002.92424        26.61124                                                                
E27                        -3.89523      1975.60823        20.31423                                                                
E30                        -3.62925       550.24325        34.77625                                                                
E34                        -7.62226      1223.41326        40.19526                                                                
E36                     12533.59216     -1608.88416        39.80616                     15769.89215     -1216.05915        34.38615
> 2022 11 17 12 45 55.9997457  0 37                      
G04                     91245.38512     -3255.90112        16.12612                                                                
G07                    -48580.22516      1798.26916        38.69016                                                                
G08                     22270.31416      -674.95016        40.15116                     31482.11416      -505.39016        37.39516
G09                     37781.78211     -2692.10211        12.24411                     33901.75711     -1997.98811         7.00011
G10                       -41.91721      1609.75521         7.00021                                                                
G16                     67826.79516     -2506.21716        35.62416                                                                
G21                    -64928.86917      2407.23117        42.68917                                                                
G26                    108876.97816     -2925.13916        36.28316                    260677.98416     -2184.67416        40.98716
G27                    107405.04417     -2668.67517        44.38517                    220398.43316     -1991.52016        35.98916
G30                   -112515.77114      3111.24014        28.85214                   -248874.67014      2322.24814        27.34414
R14                     86334.83517     -3193.75117        44.63717
R96                     71483.10512     -2774.53012        15.12512
R15                     13804.32016      -510.27316        38.73116
R102                    180819.95016     -4287.35016        36.77916
R17                     54823.97916     -1832.26116        39.19216
R105                     14761.51115      -550.69315        30.34115
J02                    -12367.65516       452.32516        41.06916                     -9180.74316       338.32116        36.05316
J04                     16388.08316      -577.43916        40.92316                     12235.32015      -430.83115        34.88815
J02                      1773.73422      -123.90222        13.87122                                                                
C01                      2736.42413       -94.94613        21.41113
C04                      2796.81611       -89.99811         9.58811
C05                      4010.09511      -142.44611         7.00011
C06                     45703.82711     -1687.70211         7.12611
C07                       175.27515         3.99115        33.40615
C09                     32774.62713     -1206.20213        20.75113
C10                     -2257.95015        97.49115        32.38115
C26                    -69862.66515      2803.70115        30.26715
C29                     -9058.48216       364.75216        40.37116
C35                    -65433.44912      2732.75212        14.84612
C36                     49017.50016     -2036.41416        37.00016
E02                     15746.78625     -1451.70625        32.63625                                                                
E08                        21.84821     -2721.94921         7.00021                                                                
E15                       -23.96024      3000.97324        24.31224                                                                
E27                        -3.93923      1973.65723        20.77623                                                                
E30                        -3.63924       549.26824        28.70924                                                                
E34                        -7.64526      1221.46226        35.93126                                                                
E36                     14142.36916     -1608.30716        37.38016                     16986.90315     -1216.45615        34.06515
> 2022 11 17 12 45 56.9997456  0 37                      
G04                     94500.97312     -3259.77012        15.63612                                                                
G07                    -50376.37716      1799.28616        38.33016                                                                
G08                     22945.35816      -677.09516        39.92016                     31987.94716      -506.07516        36.08016
G09                       102.07421     -2693.65621         7.00021                                                                
G10                       -41.86721      1610.73021         7.00021                                                                
G16                     70330.43015     -2505.61515        35.02015                                                                
G21                    -67338.15016      2406.02016        39.34816                                                                
G26                    111804.53615     -2923.44515        33.68015                    262862.71617     -2184.59117        41.83817
G27                    110074.01917     -2669.16517        42.95717                    222392.07616     -1993.74116        39.42016
G30                   -115627.19114      3112.14514        27.13214                   -251194.77215      2320.87515        30.07215
R14                     89528.04417     -3193.21617        41.92217
R96                     74258.76912     -2774.05712        14.59212
R15                     14313.37317      -511.33017        41.52417
R102                    185105.99416     -4287.85516        38.62016
R17                     56656.23916     -1834.54116        40.25616
R105                     15313.57715      -551.42515        31.46315
J02                    -12819.05916       451.21416        41.24916                     -9517.99116       337.17816        38.06016
J04                     16967.26216      -578.71516        39.54816                     12665.02515      -430.81315        32.28715
J02                      1773.70223      -121.95123        19.20723                                                                
C01                      2811.00613       -93.10113        19.24413
C04                      2886.57612       -90.28512        15.27312
C05                      4149.42611      -142.44611         7.00011
C06                     47387.25712     -1684.63312        14.22712
C07                       173.43815         3.34215        32.99415
C09                     33985.15613     -1205.77813        19.01913
C10                     -2357.42715        97.44815        31.81215
C26                    -72668.94014      2803.64214        27.78414
C29                     -9421.96416       364.09416        38.49816
C35                    -68160.31212      2730.69512        15.77812
C36                     51055.16015     -2037.70115        35.20715
E02                     15746.72526     -1450.73026        38.20826                                                                
E08                        21.73421     -2719.99721         7.00021                                                                
E15                       -23.85023      3002.92423        20.82923                                                                
E27                        -3.86423      1975.60823        23.24323                                                                
E30                        -3.62126       550.24326        38.75126                                                                
E34                      -987.64316      1223.39216        38.65216                    -22256.63813       929.62213        21.86113
E36                     15747.50116     -1607.48516        35.86216                     18205.72415     -1219.22315        31.87815
> 2022 11 17 12 45 57.9997456  0 37                      
G04                     97754.98214     -3257.73714        24.71514                                                                
G07                    -52176.87515      1800.02115        34.13115                                                                
G08                     23624.39416      -679.31816        38.74816                     32493.20915      -506.40715        35.48715
G09                       102.10021     -2691.70521         7.00021                                                                
G10                       -41.93021      1612.68121         7.00021                                                                
G16                     72834.28617     -2505.82917        43.15417                                                                
G21                    -69742.42616      2404.86516        37.63316                                                                
G26                    114727.97515     -2922.24415        32.47015                    265047.68816     -2185.18116        40.90816
G27                    112744.87417     -2671.34617        42.46817                    224384.06816     -1993.86516        36.25616
G30                   -118741.48114      3110.33314        27.66614                   -253515.50714      2319.88714        26.12914
R14                     92721.97117     -3193.62417        45.06817
R96                     77034.28412     -2774.82912        13.73112
R15                     14825.52916      -511.81616        41.11516
R102                    189394.54016     -4288.52316        40.01916
R17                     58492.05816     -1835.97816        40.41716
R105                     15866.56114      -552.20314        28.22514
J02                    -13271.98616       450.80816        39.05316                     -9854.09415       336.29315        33.66515
J04                     17547.04816      -580.24916        40.09216                     13097.42115      -432.57815        35.41615
J02                      1773.66422      -119.02422        13.66822                                                                
C01                      2882.46712       -93.08612        13.91212
C04                      2974.71013       -90.01313        22.38413
C05                      4287.18211      -138.54311         7.00011
C06                     49068.96912     -1680.81912        16.89412
C07                       172.54715         0.93415        32.63915
C09                     35195.14213     -1209.86713        18.58413
C10                     -2457.08214        97.85714        27.92114
C26                    -75473.15015      2801.45815        33.07715
C29                     -9784.22416       362.21816        39.08316
C35                    -70888.47812      2726.29412        14.78312
C36                     53094.75016     -2040.04216        39.84216
E02                     15746.75127     -1448.77927        42.17627                                                                
E08                        21.79021     -2718.04621         7.00021                                                                
E15                       -23.92923      3004.87523        18.30223                                                                
E27                        -3.91123      1976.58323        19.52223                                                                
E30                        -3.63625       551.21925        35.02925                                                                
E34                     -2210.57816      1224.84516        39.35116                    -23184.37914       926.88714        27.58814
E36                     17348.97316     -1607.32416        38.73316                     19423.68816     -1217.92816        37.91316
> 2022 11 17 12 45 58.9997455  0 37                      
G04                    101010.54815     -3256.09615        30.08115                                                                
G07                    -53975.02316      1798.08316        36.84716                                                                
G08                     24303.66016      -679.78016        37.21616                     33000.23616      -507.21616        36.79616
G09                       101.97721     -2690.72921         7.00021                                                                
G10                       -41.85521      1611.70621         7.00021                                                                
G16                     75341.22316     -2507.23316        36.77616                                                                
G21                    -72145.22216      2402.47216        35.77616                                                                
G26                    117649.94915     -2921.66415        30.23015                    267233.28717     -2185.72317        43.94017
G27                    115415.66517     -2671.24817        43.86217                    226377.77816     -1992.57316        37.73816
G30                   -121848.98815      3108.21315        33.58815                   -255835.25514      2319.66414        28.95114
R14                     95916.02717     -3194.34917        46.27917
R96                     79810.38912     -2771.58412        15.05012
R15                     15337.64617      -511.51817        41.77317
R102                    193683.34916     -4289.23916        38.31916
R17                     60328.78116     -1837.09416        39.52616
R105                     16420.19814      -553.24614        28.39214
J02                    -13722.51917       450.46517        42.94017                    -10190.32316       335.53416        36.67816
J04                     18126.19216      -579.35916        39.97516                     13529.99315      -432.55115        33.42915
J02                      1773.65922      -119.02422        13.56322                                                                
C01                      2950.43811       -93.08611         8.58011
C04                      3062.15012       -87.49412        17.33312
C05                      4424.16811      -138.54311         7.00011
C06                     50749.32913     -1681.96113        18.98313
C07                       171.60815         0.50415        33.21015
C09                     36406.31912     -1211.41812        16.63212
C10                     -2553.88115        96.92815        31.75015
C26                    -78274.06615      2801.40415        31.30415
C29                    -10146.50516       362.25016        37.61016
C35                    -73616.87612      2733.74012        12.70712
C36                     55134.79816     -2040.25816        40.95216
E02                     15746.78525     -1448.77925        32.88525                                                                
E08                        21.85022     -2717.07122        16.38422                                                                
E15                       -23.99921      3004.87521        12.05821                                                                
E27                        -3.95723      1976.58323        21.44023                                                                
E30                        -3.64925       551.21925        35.00325                                                                
E34                     -3433.94016      1223.09716        39.17516                    -24110.28615       925.88215        32.26315
E36                     18947.55416     -1607.73016        37.79516                     20641.46115     -1217.17115        34.51715
> 2022 11 17 12 45 59.9997454  0 37                      
G04                    104267.27816     -3256.49316        36.79516                                                                
G07                    -55772.74315      1796.80715        29.88515                                                                
G08                     24982.51616      -678.40416        39.21716                     33507.87316      -508.35516        35.95416
G09                       102.02121     -2689.75321         7.00021                                                                
G10                       -41.91821      1613.65721         7.00021                                                                
G16                     77847.59916     -2506.36216        39.67616                                                                
G21                    -74546.57815      2400.17915        30.91615                                                                
G26                    120574.84716     -2924.29316        36.62016                    269418.86217     -2185.58317        43.97117
G27                    118085.63117     -2670.35617        43.20617                    228370.61215     -1993.57215        35.05115
G30                   -124956.23115      3107.90015        34.59015                   -258154.85114      2319.27214        28.47614
R14                     99111.38117     -3195.39217        44.95417
R96                     82585.48212     -2776.83712        14.62412
R15                     15850.32316      -512.64416        40.79016
R102                    197971.89816     -4288.68316        40.06416
R17                     62165.70917     -1837.09517        41.84417
R105                     16973.40814      -552.66614        29.37814
J02                    -14173.60416       450.85316        39.03716                    -10528.23915       338.16315        32.28915
J04                     18704.89217      -578.75917        42.66617                     13961.65616      -432.01216        35.75716
J02                      1773.63522      -117.07322        16.60722                                                                
C01                      3015.04512       -92.91812        15.35212
C04                      3148.59313       -87.53513        23.06213
C05                      4560.36611      -136.59211        12.38911
C06                     52429.11714     -1686.81714        27.39514
C07                       170.58415         0.66015        34.65815
C09                     37617.21713     -1211.09613        18.86913
C10                     -2651.28315        97.56815        29.60815
C26                    -81074.14216      2800.08216        37.32116
C29                    -10509.00316       362.02416        39.00816
C35                    -76343.93412      2731.89112        14.88812
C36                     57174.38217     -2040.12017        44.68717
E02                     15746.72527     -1447.80327        42.48727                                                                
E08                        21.74021     -2716.09521         7.00021                                                                
E15                       -23.88521      3005.85121         7.00021                                                                
E27                        -3.88224      1978.53524        26.31724                                                                
E30                        -3.63125       552.19525        35.00625                                                                
E34                     -4656.69316      1222.46216        40.45916                    -25036.44214       926.37014        28.68414
E36                     20556.04216     -1608.09016        40.93716                     21857.64416     -1215.49316        37.75816
> 2022 11 17 12 46 00.9997453  0 37                      
G04                    107524.67716     -3256.79616        38.20216                                                                
G07                    -57570.18015      1799.54415        33.88515                                                                
G08                     25659.75216      -677.74616        39.19916                     34015.14715      -507.73615        35.34015
G09                       102.08421     -2689.75321         7.00021                                                                
G10                       -41.94322      1612.68122        13.45622                                                                
G16                     80352.88116     -2505.56916        41.19616                                                                
G21                    -76948.62914      2399.39914        29.14814                                                                
G26                    123500.23516     -2925.71416        38.60616                    271601.53517     -2184.59217        42.62117
G27                    120754.09317     -2668.30617        41.86717                    230363.47816     -1993.21216        36.59616
G30                   -128064.60916      3108.86416        37.15216                   -260475.06615      2320.75215        32.38715
R14                    102306.41516     -3195.51316        40.94316
R96                     85360.73812     -2774.90312        14.38712
R15                     16362.39917      -512.22417        43.14917
R102                    202258.84816     -4286.99216        39.32616
R17                     64002.57317     -1837.54217        42.46317
R105                     17527.27414      -552.40814        28.20614
J02                    -14625.63416       453.18116        39.68016                    -10866.58415       339.46915        31.11815
J04                     19282.04416      -576.87216        41.46116                     14392.86415      -430.84715        35.38815
J02                      1773.65121      -118.04921         7.00021                                                                
C01                      3076.37011       -92.93811        12.26311
C04                      3234.40814       -86.49614        24.70514
C05                      4698.51511      -136.59211         7.33811
C06                     54110.22215     -1682.39515        30.87915
C07                       168.50515         1.87415        34.86415
C09                     38824.62313     -1209.14713        20.93413
C10                     -2748.10815        97.21115        30.05615
C26                    -83874.26616      2799.54316        37.51216
C29                    -10871.71316       362.64616        37.87816
C35                    -79071.76412      2726.42112        15.73012
C36                     59213.31217     -2038.99617        44.66817
E02                     15746.75927     -1447.80327        42.61427                                                                
E08                        21.80322     -2716.09522        15.92222                                                                
E15                       -23.95623      3005.85123        18.55323                                                                
E27                        -3.92825      1978.53525        29.75825                                                                
E30                        -3.64426       552.19526        37.34626                                                                
E34                     -5879.11616      1222.14216        41.36316                    -25961.08814       925.79114        29.42014
E36                     22164.91316     -1608.51516        39.98516                     23075.25216     -1217.79416        36.46316
> 2022 11 17 12 46 01.9997452  0 37                      
G04                    110782.59215     -3255.77415        31.17615                                                                
G07                    -59367.38816      1797.16716        38.71216                                                                
G08                     26337.01516      -677.30016        38.40916                     34520.33516      -505.51016        36.78016
G09                       102.03521     -2692.68021         9.84721                                                                
G10                       -41.86721      1611.70621         7.00021                                                                
G16                     82857.54316     -2504.43316        38.84216                                                                
G21                    -79351.64214      2400.33314        26.28514                                                                
G26                    126426.09916     -2926.31216        35.75916                    273785.44416     -2184.10516        40.28116
G27                    123421.52717     -2666.74717        42.83417                    232356.31916     -1992.96316        37.49516
