     3.03           OBSERVATION DATA    M                   RINEX VERSION / TYPE
GnssLogger          Xiaomi 10           20221118 110343 UTC PGM / RUN BY / DATE
Google GnssLogger                                           MARKER NAME
G    8 C1C L1C D1C S1C C5Q L5Q D5Q S5Q                      SYS / # / OBS TYPES
R    4 C1C L1C D1C S1C                                      SYS / # / OBS TYPES
J    8 C1C L1C D1C S1C C5Q L5Q D5Q S5Q                      SYS / # / OBS TYPES
C    4 C2C L2C D2C S2C                                      SYS / # / OBS TYPES
E    8 C1C L1C D1C S1C C5Q L5Q D5Q S5Q                      SYS / # / OBS TYPES
  2022    11    18    11    03   43.0000000     GPS         TIME OF FIRST OBS
 10 R06 -4 R101  1 R102  2 R103  3 R105  5 R15  0 R17  4 R19  3 GLONASS SLOT / FRQ #
    R93 -7 R98 -2                                           GLONASS SLOT / FRQ #
                                                            END OF HEADER
> 2022 11 18 11 03 43.0000148  0 39                      
G04  21739792.15524   1730997.73924     -1843.76724        25.78024                                                                
G07  24515473.39127   -902164.48927      3153.44627        46.35927                                                                
G08  21264211.59325  -2554947.86125      2399.51825        31.08125  21264229.28025  -1757628.02225      1791.78325        31.21025
G09  22471998.65926   -475076.27226       193.18626        37.66526  22472008.85226   -368783.76726       143.98326        36.72526
G16  20775066.32125    709197.44725     -1363.85425        34.17525                                                                
G18  24104329.92024    229810.50724     -1040.80924        28.86424                                                                
G26  22198382.58025     38722.56825     -2331.20225        33.06525  22198385.57724    112991.48024     -1740.81724        26.06124
G27  19884281.89826   -818882.64326       240.16826        36.28026  19884277.70114   -686060.48014       179.22514        23.93814
G31                   3179542.99913     -3332.67913        20.27613                                                                
R93                    782820.74013     -2833.46713        22.68013
R06                      5159.25213     -1992.19213        18.26313
R98  24381514.12926    -78073.98026      2907.94526        40.78426
R15  20368385.56025    361927.79925     -1102.33625        34.23525
R101                       161.99826     -4059.92626        35.56026
R102                    106346.34422     -3926.88622        17.34222
R103                     -6149.38421      4492.18521         7.00021
R17  20122025.41225    260164.07125     -1017.32625        35.19225
R105  23372361.45126   -393867.69326      1197.12726        39.66226
J02  39181410.67426      6343.01826        36.37326        36.11126  39181409.17514      6653.50514        26.55014        28.57014
J04  37549302.75925     52378.16825      -181.61325        32.93725  37549300.66024     74847.26524      -135.58124        29.41324
J02                         9.71924      -338.53624        28.27724                                                                
C03                         2.18224       -91.70724        25.41724
C04                         1.07921       -80.00021         7.00021
C05                         0.13121      -132.68321         7.00021
C06  36026421.52724    797677.48724      -790.79924        27.05524
C07  36442288.52926   -137990.82926        84.43426        35.52826
C09  36233398.84026    138090.54926      -211.99726        36.56226
C10  37477203.27225   2502624.65225       168.68025        29.99225
C16  36250621.61724    960671.10224      -937.77124        25.25824
C19  26257090.99414   -673457.72714     -2471.66014        24.01114
C22  26401692.88825    641310.94625      -848.24725        34.76325
C27  22083018.24526  -1180723.50426       705.43926        37.48326
C28  24018470.85925   2117136.20025     -2155.58325        31.41425
C36  24515157.11026  -2622413.32226      2264.35126        38.90926
C37  24056739.96514   2224511.73614     -2063.03014        27.07814
E05                   1348969.37715     -1455.85615        34.87315  25175730.60426   1027804.28726     -1100.93826        37.62726
E24                     -1177.20227        50.73227        42.24627                                                                
E31                   1699836.28715     -1573.61315        32.62115  25368242.93125   2106468.00725     -1190.11725        31.23625
E33                    135229.97216      -382.33316        35.73916                    147560.42513      -278.91113        18.51113
> 2022 11 18 11 03 44.0000148  0 39                      
G04  21740100.34224   1732842.45724     -1844.71824        24.90024                                                                
G07  24514845.02627   -905317.13427      3152.64427        45.79927                                                                
G08  21263729.22725  -2557346.04025      2398.17825        30.50225  21263742.71725  -1759418.66725      1790.64525        31.74825
G09  22471933.00526   -475267.65426       191.38226        38.21726  22471941.99826   -368926.94626       143.17926        37.13326
G16  20775294.76325    710562.84125     -1365.39425        34.59825                                                                
G18  24104499.60224    230852.87724     -1042.37024        27.52624                                                                
G26  22198797.79225     41055.27425     -2332.70625        32.63925  22198799.89124    114733.33124     -1741.85124        26.82524
G27  19884208.44926   -819120.94226       238.29926        36.12126  19884205.45114   -686238.26514       176.50414        27.06514
G31                   3179545.75013     -3333.11213        22.84513                                                                
R93                    785652.99213     -2832.99413        22.23213
R06                      7138.63212     -1973.06812        15.20612
R98  24380926.83626    -80981.15126      2907.17126        41.15726
R15  20368556.74226    363031.63526     -1103.83626        36.68126
R101                       162.21825     -4061.38825        34.85525
R102                    106346.56721     -3928.83521        11.79621
R103                     -6149.31222      4490.23622        14.01022
R17  20122181.60425    261183.60825     -1019.53725        35.28725
R105  23372109.32526   -395063.16726      1195.47426        38.82826
J02  39181372.60026      6307.74226        35.27626        35.96426  39181375.59825      6627.22225        26.28225        29.98925
J04  37549300.06025     52561.00525      -182.83725        32.67425  37549304.25825     74983.75525      -136.49025        29.64225
J02                         9.74023      -339.51223        22.88323                                                                
C03                         2.18321       -93.65821         7.00021
C04                         1.07823       -81.95123        19.00123
C05                         0.12821      -134.63421         7.00021
C06  36026547.74024    798469.72224      -792.23524        27.55524
C07  36442241.16126   -138074.34626        83.51726        35.69226
C09  36233408.13426    138303.74726      -213.19726        36.82126
C10  37477141.21524   2502456.64224       168.01024        28.83824
C16  36250770.01414    961610.12214      -939.69214        24.88914
C19  26257537.38513   -670985.69113     -2474.60213        23.17013
C22  26401822.99826    642160.40726      -849.46226        40.22426
C27  22082852.75926  -1181427.19926       703.69526        37.57226
C28  24018859.98925   2119293.48225     -2157.28225        33.21625
C36  24514689.43426  -2624676.71326      2263.39226        39.05326
C37  24057102.11514   2226574.01214     -2063.69914        25.98814
E05                   1350425.94116     -1457.04016        35.79616  25175978.23326   1028906.24226     -1101.95426        36.75026
E24                     -1177.19326        48.78026        39.88426                                                                
E31                   1701410.70815     -1575.18015        31.80715  25368510.34625   2107659.05325     -1191.04625        31.63925
E33                    135613.40815      -384.88815        34.78715                    147838.71113      -295.17113        19.98013
> 2022 11 18 11 03 45.0000147  0 39                      
G04  21740431.01315   1734689.13815     -1848.92915        34.27215                                                                
G07  24514216.06126   -908469.60726      3152.47326        40.48726                                                                
G08  21263252.25715  -2559741.92815      2395.35815        35.19315  21263254.05625  -1761208.56825      1789.90125        32.83725
G09  22471872.74627   -475458.95627       191.30227        44.67427  22471875.14526   -369069.76226       142.81526        40.27126
G16  20775523.50426    711930.44826     -1367.60626        35.78926                                                                
G18  24104668.38514    231895.68914     -1046.27714        24.62614                                                                
G26  22199220.79925     43390.68025     -2335.40525        32.53825  22199224.09725    116477.29125     -1743.96025        31.34325
G27  19884130.80315   -819356.92015       235.03115        35.48915  19884133.20125   -686414.67225       176.40725        34.12525
G31  24684740.41013   3182881.26113     -3337.37213        21.39613                                                                
R93                    788488.40414     -2837.74714        27.71514
R06                      3175.94611     -1973.18611         7.00011
R98  24380359.02926    -83889.23626      2908.08526        40.02426
R15  20368719.22925    364138.59325     -1106.95825        33.60625
R101                       162.15425     -4061.38825        33.35525
R102                    106346.51523     -3929.32223        17.76723
R103                     -6149.24222      4490.23622        16.13822
R17  20122344.09115    262206.19215     -1027.12015        32.69815
R105  23371843.40926   -396258.16526      1194.99926        40.98426
J02  39181333.02825      6274.59425        33.14825        34.76625  39181336.02524      6602.35924        24.86424        29.45024
J04  37549306.65625     52746.56725      -185.56225        33.70825  37549308.75424     75122.27924      -138.52324        28.56924
J02                         9.76223      -340.48723        22.51323                                                                
C03                         2.18524       -93.65824        24.97024
C04                         1.08023       -81.95123        21.76723
C05                         0.13121      -134.63421         7.00021
C06  36026668.55625    799263.23925      -793.51725        33.11325
C07  36442195.29325   -138157.03225        82.68625        34.63725
C09  36233413.83015    138518.80515      -214.44915        34.65615
C10  37477068.96515   2502289.15015       167.16415        32.24815
C16  36250933.40114    962550.86014      -939.79714        29.35914
C19                   -668512.20913     -2481.87713        19.82513
C22  26401957.60527    643009.51527      -849.10727        44.40127
C27  22082689.37216  -1182129.36116       701.21216        35.59916
C28  24019253.01715   2121452.34015     -2156.54915        32.13215
C36  24514228.95227  -2626940.59927      2263.88527        43.63127
C37  24057478.95414   2228637.52214     -2065.10914        27.14014
E05                   1351883.47616     -1460.50816        35.84516  25176225.26225   1030008.80125     -1102.55925        33.20825
E24                     -1177.19426        48.78026        40.16726                                                                
E31                   1702986.00615     -1572.90915        30.73715  25368777.46114   2108852.01214     -1193.19814        29.43814
E33                    135998.76915      -383.50515        30.89915                    148116.94513      -278.29713        19.71413
> 2022 11 18 11 03 46.0000147  0 39                      
G04  21740776.67315   1736537.70815     -1852.43815        34.82015                                                                
G07  24513614.37817   -911622.46217      3153.22117        41.58017                                                                
G08  21262795.67316  -2562132.81516      2391.40616        38.10716  21262798.07116  -1762993.68316      1785.67916        36.30216
G09  22471834.07316   -475649.36916       187.76216        39.23016  22471837.97016   -369209.92816       143.21116        38.61316
G16  20775783.72416    713298.44016     -1365.24816        38.51716                                                                
G18  24104861.45214    232939.91714     -1048.09514        25.32514                                                                
G26  22199662.39415     45726.97515     -2337.48415        33.57715  22199661.49415    118226.89615     -1742.68215        30.28915
G27  19884087.63315   -819588.44415       233.21815        33.41815  19884088.53215   -686587.67815       170.94815        32.98615
G31  24685367.27613   3186222.24313     -3336.20613        20.79113                                                                
R93                    791327.69515     -2841.82115        30.45115
R06                      3175.84412     -1992.72112        14.47612
R98  24379817.00416    -86796.59316      2908.64616        37.68816
R15  20368944.97316    365245.25716     -1110.63716        36.43716
R101                       162.12924     -4063.33724        24.48224
R102                    106346.47321     -3930.29721        12.25321
R103                     -6149.44921      4486.82521         7.00021
R17  20122545.55215    263231.67915     -1024.98515        34.00215
R105  23371641.94927   -397452.08127      1193.91627        41.76827
J02  39181333.32715      6238.16615        33.13515        34.02115  39181333.32715      6581.96915        23.23315        30.58115
J04  37549347.12815     52930.55015      -184.93715        30.64115  37549351.32514     75258.18414      -141.98214        25.44914
J02                         9.78922      -343.41422        16.30722                                                                
C03                         2.19123       -95.61023        20.84223
C04                         1.08621       -85.85421         7.00021
C05                         0.13421      -134.63421         7.00021
C06  36026826.54715    800061.85915      -799.85115        30.65315
C07  36442179.40415   -138236.48115        77.50215        34.75115
C09  36233459.39816    138734.17416      -217.14516        35.82916
C10  37477044.38215   2502124.91215       162.07515        31.31115
C16  36251118.37315    963496.04715      -943.39215        32.19315
C19                   -666037.86213     -2485.23113        18.29413
C22  26402120.39217    643858.44717      -852.93517        44.53717
C27  22082554.46615  -1182826.57015       700.36815        34.54815
C28  24019666.43115   2123615.92115     -2163.73715        33.32015
C36  24513792.15516  -2629204.43016      2261.85716        38.40716
C37  24057875.57914   2230702.37514     -2066.00514        28.65614
E05                   1353340.49016     -1463.99016        36.18216  25176500.77125   1031112.60525     -1103.80425        31.81525
E24                     -1177.19126        47.80526        37.11026                                                                
E31                   1704560.88315     -1574.98215        30.17315  25369076.35425   2110046.19425     -1194.18225        29.78625
E33                    136382.77815      -384.69415        31.25415  26204218.09715    148393.40015      -296.15215        30.28315
> 2022 11 18 11 03 47.0000146  0 39                      
G04  21741106.74516   1738386.05516     -1849.26616        38.36516                                                                
G07  24512984.51417   -914780.02917      3157.89317        43.07917                                                                
G08  21262304.01315  -2564527.12715      2399.47515        35.18015  21262312.10815  -1764772.26915      1784.86515        33.64515
G09  22471769.61816   -475837.20016       196.19916        40.80916  22471771.41616   -369345.05416       144.61816        36.47916
G16  20776013.66516    714669.45116     -1372.40216        39.20416                                                                
G18  24105015.24514    233988.77214     -1043.19414        25.94514                                                                
G26  22200072.80915     48063.41415     -2339.05315        34.51915  22200076.70715    119977.67915     -1747.06215        34.62215
G27  19884009.98616   -819818.26116       236.41316        39.68416  19884013.58416   -686762.04616       179.73816        37.58916
G31  24685967.46013   3189553.56513     -3334.97113        21.97813                                                                
R93                    794171.01914     -2838.90014        27.95514
R06                      3180.91012     -1995.11612        14.27412
R98  24379236.90516    -89709.12716      2914.75316        35.50316
R15  20369117.35316    366360.13716     -1111.05816        37.51616
R101                       162.13426     -4066.74826        37.91026
R102                    106346.42121     -3930.78421        11.28621
R103                     -6149.37621      4483.90121        11.46321
R17  20122686.45416    264260.95816     -1027.87516        38.07616
R105  23371394.32016   -398641.73616      1196.67516        38.68516
J02  39181291.35616      6202.35716        33.51516        36.91216  39181298.25215      6565.28815        25.80515        34.04815
J04  37549350.72514     53123.32414      -190.29914        29.46314  37549351.32514     75403.34414      -140.61714        26.32314
J02                         9.82523      -345.36623        18.46623                                                                
C03                         2.19524       -99.51224        28.47924
C04                         1.08221       -85.85421         7.00021
C05                         0.13321      -138.53621         7.00021
C06  36026940.46815    800858.09415      -793.60115        32.52815
C07  36442136.83415   -138305.97115        81.09315        33.12115
C09  36233471.69015    138951.09315      -215.29315        32.63715
C10  37476973.63115   2501966.00615       163.59815        32.84215
C16  36251267.67015    964435.54215      -938.14215        32.95315
C19  26258900.84113   -663551.09413     -2474.35713        20.98513
C22  26402250.80217    644706.02517      -843.96617        41.98217
C27  22082394.37615  -1183520.72115       698.88615        34.77815
C28  24020051.96416   2125776.89516     -2163.41816        35.75216
C36  24513328.37616  -2631465.99016      2269.56616        39.55416
C37  24058239.52715   2232766.56015     -2068.95415        32.53115
E05                   1354793.12816     -1453.52216        35.50616  25176748.70015   1032217.72415     -1101.58115        30.26315
E24                     -1177.18227        45.85427        41.64427                                                                
E31                   1706141.62715     -1579.63215        32.33515  25369347.36615   2111241.61115     -1192.12615        33.65215
E33                    136768.10615      -388.68815        32.69415  26204257.07015    148676.91015      -297.78215        31.63715
> 2022 11 18 11 03 48.0000145  0 39                      
G04  21741425.72416   1740232.92716     -1846.29916        40.39116                                                                
G07  24512354.35016   -917935.29716      3154.76516        37.08016                                                                
G08  21261823.14616  -2566923.22316      2396.46816        39.63716  21261827.94316  -1766550.74216      1789.38516        39.11116
G09  22471700.96516   -476027.62116       191.59516        40.68316  22471705.46216   -369487.10416       142.30016        36.69616
G16  20776243.90616    716039.40316     -1370.77616        40.61716                                                                
G18  24105195.42014    235031.49114     -1042.59214        24.01714                                                                
G26  22200488.02215     50396.46515     -2335.35015        34.06315  22200494.91715    121721.44915     -1740.57515        31.95415
G27  19883932.04016   -820050.95616       232.79316        39.73016  19883938.63615   -686936.17315       170.70615        34.49815
G31  24686585.93213   3192889.51613     -3338.34513        22.71513                                                                
R93                    797004.71614     -2834.36014        25.52114
R06                      3173.27012     -2001.95612        15.88212
R98  24378673.29615    -92618.34615      2909.95215        34.89615
R15  20369292.73216    367469.24816     -1108.41916        38.19816
R101                       162.17826     -4059.43826        37.49626
R102                    106346.67422     -3934.19622        15.32922
R103                     -6149.30923      4487.31223        18.22923
R17  20122861.53316    265288.59016     -1027.81716        36.74116
R105  23371124.80716   -399835.55016      1193.92316        39.78516
J02  39181254.18226      6169.91326        32.44426        38.23026  39181261.67715      6541.70015        23.20815        32.70815
J04  37549359.41914     53314.65314      -188.25014        27.60014  37549360.61914     75544.11114      -133.09914        25.42414
J02                         9.80524      -343.41424        25.75224                                                                
C03                         2.18925       -95.61025        30.27325
C04                         1.08621       -87.80521         7.00021
C05                         0.12621      -128.78021         7.00021
C06  36027067.58015    801652.10715      -790.31415        34.14115
C07  36442085.56916   -138389.34516        83.98316        38.50216
C09  36233478.58516    139166.38416      -213.45316        36.96416
C10  37476915.77115   2501797.44615       170.91915        34.11615
C16  36251420.56415    965378.65515      -942.93515        33.37915
C19  26259342.73513   -661080.24513     -2464.78813        22.58713
C22  26402383.31016    645549.68216      -850.20716        40.58516
C27  22082230.39016  -1184218.72316       697.75616        36.86716
C28  24020445.89115   2127937.16015     -2153.55915        32.48015
C36  24512859.50016  -2633731.64516      2267.24616        37.73316
C37  24058607.67215   2234835.67415     -2064.04715        30.20515
E05                   1356238.51016     -1459.07516        36.37816  25176995.12915   1033320.39915     -1103.91415        32.33915
E24                     -1177.19026        47.80526        38.80926                                                                
E31                   1707736.43815     -1582.52115        31.10415  25369619.27815   2112437.36415     -1194.15915        30.12615
E33                    137160.25415      -394.47315        31.66715  26204306.23614    148971.01714      -296.48214        27.62814
> 2022 11 18 11 03 49.0000145  0 39                      
G04  21741774.68316   1742081.62116     -1847.41216        39.15216                                                                
G07  24511755.06517   -921092.38717      3154.84317        42.24117                                                                
G08  21261377.65516  -2569316.66316      2396.95716        38.64716  21261371.35916  -1768332.39616      1786.05716        36.05916
G09  22471664.09116   -476216.85116       194.27616        40.47716  22471670.68616   -369629.69316       139.23116        36.72816
G16  20776503.52616    717410.04416     -1367.10416        36.64316                                                                
G18  24105391.78514    236082.62914     -1048.17914        23.73514                                                                
G26  22200924.22015     52737.62515     -2336.11715        34.71215  22200935.61215    123470.36415     -1749.97015        34.59515
G27  19883898.76316   -820275.93716       227.62616        35.67416  19883896.96515   -687109.27715       166.24215        31.09015
G31  24687239.78013   3196225.13413     -3337.74013        22.04913                                                                
R93                    799839.86514     -2834.95114        23.60914
R06                      3177.37012     -1991.70412        13.83812
R98  24378114.48316    -95528.42116      2909.65616        36.58516
R15  20369510.98115    368578.06415     -1111.18315        34.42615
R101                       162.12525     -4059.92625        33.86925
R102                    106346.61322     -3934.19622        15.83222
R103                     -6149.24022      4488.28722        13.44522
R17  20123052.80015    266319.65315     -1033.44915        35.18115
R105  23370897.56416   -401028.50616      1192.72116        39.28716
J02  39181251.78415      6140.29315        26.46115        34.21415  39181254.78215      6525.53615        19.94715        31.33815
J04  37549392.39714     53502.18014      -186.19814        26.00214  37549394.19514     75677.17114      -140.98014        25.00914
J02                         9.77823      -342.43923        23.36423                                                                
C03                         2.18225       -93.65825        31.82925
C04                         1.08121       -85.85421         7.00021
C05                         0.12321      -130.73221         7.00021
C06  36027221.07415    802441.30915      -789.41215        30.44415
C07  36442070.87915   -138465.25415        81.38915        35.38015
C09  36233524.15315    139387.15015      -219.61815        34.38915
C10  37476883.69315   2501637.58715       165.89815        33.56315
C16  36251598.04115    966334.70415      -949.67315        29.83715
C19  26259819.10614   -658612.52414     -2465.95914        23.74114
C22  26402551.19417    646398.52417      -848.80117        41.50717
C27  22082099.68015  -1184917.27215       692.48215        33.18615
C28  24020847.91315   2130091.27015     -2154.17415        32.29915
C36  24512428.39916  -2635998.28616      2263.80416        40.24416
C37  24059001.00015   2236904.34915     -2072.59415        32.38715
E05                   1357680.36015     -1454.40415        34.53715  25177275.13514   1034424.33014     -1105.42314        28.96314
E24                     -1177.18526        46.82926        39.00826                                                                
E31                   1709320.73115     -1580.81315        32.33015  25369916.67215   2113639.18315     -1197.63515        31.23315
E33                    137558.74615      -390.09815        32.20815  26204376.38814    149265.47914      -296.50814        28.09114
> 2022 11 18 11 03 50.0000144  0 39                      
G04  21742095.16116   1743923.36316     -1842.70916        37.71916                                                                
G07  24511121.60416   -924248.10616      3154.95416        41.43816                                                                
G08  21260881.49816  -2571715.32316      2397.63216        38.37216  21260885.09615  -1770111.54315      1784.57515        34.79815
G09  22471602.63316   -476404.56716       190.58316        39.34416  22471604.13216   -369771.05316       142.93616        38.17016
G16  20776735.86516    718780.66816     -1373.01416        36.98816                                                                
G18  24105526.39114    237126.13314     -1047.12014        25.78514                                                                
G26  22201348.42615     55083.35215     -2340.59915        35.49715  22201351.12415    125211.10815     -1749.77515        33.31215
G27  19883817.81915   -820509.36015       228.34915        33.28015  19883821.11715   -687287.02415       172.58515        30.24215
G31  24687840.86313   3199560.77913     -3333.30013        23.42513                                                                
R93                    802679.24213     -2843.91013        22.48613
R06                      3175.25512     -1993.73312        14.05012
R98  24377558.06815    -98434.51515      2910.77915        33.52515
R15  20369671.67016    369689.52416     -1108.78116        37.62616
R101                       162.06125     -4059.92625        29.63925
R102                    106346.55123     -3934.19623        18.51123
R103                     -6149.45021      4487.80021         7.00021
R17  20123228.47916    267353.39416     -1029.45316        36.91516
R105  23370646.03816   -402215.74516      1191.36216        38.94916
J02  39181211.91115      6116.60315        27.56815        31.26915  39181218.80715      6503.44215        21.45215        30.15415
J04  37549396.59414     53685.34914      -187.27614        25.77514  37549401.69014     75826.68814      -143.88514        26.57214
J02                         9.78623      -342.43923        22.55323                                                                
C03                         2.18823       -95.61023        22.62423
C04                         1.08321       -85.85421         7.00021
C05                         0.12621      -130.73221         7.00021
C06  36027348.48615    803236.99815      -798.66615        31.54515
C07  36442025.61115   -138546.02315        82.36315        33.80715
C09  36233535.54515    139605.31915      -211.68815        33.57615
C10  37476824.63415   2501475.37115       170.14315        33.07915
C16  36251752.43415    967275.24915      -939.45415        29.90615
C19  26260263.39814   -656144.83914     -2466.13314        24.03414
C22  26402681.00416    647251.25616      -848.57516        39.80916
C27  22081926.10115  -1185613.70315       693.47015        31.06015
C28  24021235.54516   2132262.36916     -2167.96216        35.76016
C36  24511961.02216  -2638264.25516      2267.58016        39.69216
C37  24059370.04515   2238979.97315     -2075.36015        30.39615
E05                   1359120.23015     -1458.32615        32.04215  25177522.46414   1035524.95514     -1106.81014        26.27214
E24                     -1177.18626        46.82926        36.89026                                                                
E31                   1710899.99816     -1587.09716        36.61416  25370190.98215   2114831.62815     -1198.61915        30.11215
E33                    137962.49715      -394.31315        32.58915  26204419.85814    149554.33914      -295.66014        26.58114
> 2022 11 18 11 03 51.0000142  0 39                      
G04  21742419.23616   1745770.68716     -1850.99716        39.70716                                                                
G07  24510487.84216   -927404.31016      3153.13216        39.82816                                                                
G08  21260399.43216  -2574115.04116      2386.62216        37.98916  21260399.73216  -1771889.52216      1786.33816        36.08316
G09  22471530.38316   -476588.73816       189.27516        39.80316  22471537.27816   -369904.80916       141.62816        38.39116
G16  20776967.60516    720151.61916     -1372.10416        36.50916                                                                
G18  24105734.14813    238173.00913     -1049.69513        23.22713                                                                
G26  22201765.73715     57428.99515     -2340.59915        32.85115  22201766.33715    126964.88515     -1746.57615        30.95715
G27  19883745.27016   -820742.78516       232.15916        35.92616  19883746.46915   -687457.19115       175.18515        31.89215
G31  24688433.85314   3202887.82514     -3333.04614        23.65114                                                                
R93                    805522.19314     -2842.33414        24.72914
R06                      3175.95712     -1995.11612        14.72212
R98  24376969.87516   -101341.90616      2907.73616        37.14616
R15  20369854.24316    370800.32116     -1112.68816        36.39816
R101                       161.94924     -4057.48924        28.38024
R102                    106346.60622     -3940.04322        13.81322
R103                     -6149.38122      4488.77422        15.25722
R17  20123384.97016    268382.40816     -1032.56916        36.42816
R105  23370396.61116   -403404.70816      1188.13216        39.86616
J02  39181177.13515      6087.97115        31.35415        31.85615  39181181.63215      6483.73915        23.62415        29.53515
J04  37549398.99214     53874.02614      -189.40514        28.99814  37549405.58714     75973.52914      -141.69914        27.32914
J02                         9.77323      -342.43923        20.73123                                                                
C03                         2.18621       -93.65821         7.00021
C04                         1.08923       -89.75623        20.39823
C05                         0.12721      -128.78021         7.00021
C06  36027468.70215    804026.78315      -798.98815        33.13715
C07  36441976.74415   -138631.92015        80.58715        33.69115
C09  36233546.93715    139815.63215      -218.17515        32.96615
C10  37476759.57915   2501308.13715       165.03915        32.45515
C16  36251900.83115    968215.50015      -937.37015        31.97815
C19  26260707.99014   -653666.89614     -2470.01914        25.41714
C22  26402815.91116    648105.24916      -852.23616        40.81416
C27  22081768.41015  -1186305.07615       698.65815        31.64115
C28  24021617.78015   2134426.54615     -2163.64015        34.86515
C36  24511497.54316  -2640525.64016      2262.61216        40.22016
C37  24059738.49015   2241056.31115     -2070.83915        29.93715
E05                   1360560.23315     -1463.81515        31.35915  25177773.39014   1036628.71214     -1103.83014        25.72114
E24                     -1177.17925        44.87825        34.39425                                                                
E31                   1712477.13815     -1583.65015        34.00915  25370461.09514   2116033.42014     -1198.64214        28.14514
E33                    138366.86815      -393.06315        30.49515  26204467.52514    149845.61114      -300.47514        27.12614
> 2022 11 18 11 03 52.0000142  0 39                      
G04  21742738.21616   1747619.36016     -1852.48916        38.33716                                                                
G07  24509867.57217   -930557.81017      3148.01917        42.96817                                                                
G08  21259905.37416  -2576504.47916      2396.13416        40.20216  21259914.06816  -1773672.84316      1787.27316        37.46516
G09  22471467.72716   -476770.64716       182.52916        39.55216  22471473.12316   -370042.76916       133.89916        37.58816
G16  20777196.34615    721524.63015     -1371.64315        34.49015                                                                
G18  24105902.93113    239220.96013     -1055.54113        22.13113                                                                
G26  22202180.65015     59771.60015     -2336.35715        32.29615  22202182.14915    128714.70415     -1746.80415        31.29815
G27  19883667.62315   -820970.96515       229.66815        34.87915  19883673.61915   -687633.35615       171.72915        33.37115
G31  24689031.03913   3206223.74013     -3341.30713        20.44113                                                                
R93                    808356.10514     -2836.24214        24.15114
R06                      3184.07811     -1996.38311        11.54511
R98  24376394.27316   -104251.68016      2904.21216        37.39216
R15  20370038.31615    371919.60515     -1115.06215        33.19015
R101                       162.20824     -4060.90024        26.14324
R102                    106346.74223     -3937.60723        19.94023
R103                     -6149.30922      4487.31222        16.84422
R17  20123546.85815    269411.67015     -1035.89315        32.85715
R105  23370147.18416   -404588.99816      1181.57416        38.76516
J02  39181141.16015      6062.37115        32.37915        30.42515  39181147.75615      6460.27215        24.06915        29.76915
J04  37549404.08815     54060.58015      -183.12315        31.22715  37549409.78514     76110.74514      -138.39814        26.19314
J02                         9.78123      -342.43923        19.23623                                                                
C03                         2.18721       -95.61021         7.00021
C04                         1.08321       -87.80521         7.00021
C05                         0.12621      -132.68321         7.00021
C06  36027588.02015    804821.39315      -793.78015        33.88415
C07  36441933.27515   -138718.87815        80.55715        33.35115
C09  36233556.23115    140034.89815      -220.36115        32.39915
C10  37476702.61915   2501146.88815       161.66215        35.44915
C16  36252050.42815    969160.22115      -943.69815        34.10315
C19  26261153.18214   -651198.11714     -2471.83014        24.34814
C22  26402947.82016    648959.24916      -858.51816        41.44716
C27  22081602.02515  -1187001.93715       697.39015        33.66815
C28  24022015.30515   2136598.30415     -2174.65915        32.41615
C36  24511034.06416  -2642779.67816      2258.23816        39.41716
C37  24060107.53415   2243130.92415     -2062.71115        30.67415
E05                   1362006.16415     -1466.68915        33.51715                   1037719.30214     -1102.05514        24.30714
E24                     -1177.17725        44.87825        33.65625                                                                
E31                   1714057.72815     -1580.27415        31.14415  25370732.10814   2117227.76214     -1196.01214        27.84414
E33                    138769.42514      -393.87114        28.24614  26204513.69314    150144.36114      -298.24614        26.53314
> 2022 11 18 11 03 53.0000142  0 39                      
G04  21743090.47216   1749466.16916     -1849.70116        39.64116                                                                
G07  24509267.08716   -933698.38416      3144.41016        38.54116                                                                
G08  21259452.98716  -2578893.30116      2396.13416        41.39416  21259457.48416  -1775465.37616      1791.05416        37.61516
G09  22471431.75216   -476953.23216       181.19516        40.45316  22471437.44816   -370179.40116       134.37916        36.54616
G16  20777459.86415    722902.43615     -1371.31415        34.40315                                                                
G18  24106094.79813    240272.08113     -1055.83013        22.57013                                                                
G26  22202627.94115     62106.72115     -2337.80115        35.00015  22202628.84015    130459.64915     -1747.44815        32.37015
G27  19883625.65216   -821195.96416       230.33716        39.35216  19883628.05115   -687802.37115       170.69915        34.66915
G31                   3209569.72713     -3348.21213        17.80613                                                                
R93                    811193.06214     -2835.21414        26.57014
R06                      3186.53711     -1998.52711        11.06711
R98  24375852.24916   -107154.03116      2901.24516        38.36916
R15  20370243.37416    373027.25416     -1107.73216        36.31816
R101                       162.26127     -4066.74827        42.63427
R102                    106346.72022     -3939.55622        16.91922
R103                     -6149.23621      4483.90121         7.00021
R17  20123731.23115    270448.77315     -1033.25615        32.43315
R105  23369932.53215   -405766.42515      1177.84515        34.56515
J02  39181138.16215      6030.40415        32.67815        33.13115  39181140.26115      6433.47315        26.54315        29.67815
J04  37549440.96315     54235.94315      -178.69315        30.05015  37549445.76014     76245.59414      -134.64914        25.77814
J02                         9.83023      -345.36623        17.77923                                                                
C03                         2.19624       -99.51224        29.05424
C04                         1.08521       -87.80521         8.67721
C05                         0.13721      -140.48821         7.00021
C06  36027739.11515    805615.28815      -792.33615        33.93615
C07  36441917.08615   -138796.30215        82.12915        33.73715
C09  36233597.00315    140255.44715      -216.74415        31.34715
C10  37476663.94515   2500987.08415       166.16115        34.24515
C16  36252233.30115    970107.79215      -942.84915        34.06515
C19  26261622.35714   -648726.11414     -2469.89814        24.53114
C22  26403116.00316    649818.20116      -860.65116        39.31616
C27  22081469.81716  -1187701.42016       696.54316        38.45016
C28  24022428.11915   2138775.82815     -2168.45015        31.99115
C36  24510605.06116  -2645037.06616      2254.73816        37.95116
C37  24060506.85815   2245192.89015     -2058.93915        32.11515
E05                   1363461.48215     -1456.67015        31.38615                   1038851.57114     -1101.65514        26.75914
E24                     -1177.16324        40.97624        26.73124                                                                
E31                   1715640.18115     -1577.56515        32.63715  25371031.90024   2118412.66624     -1184.90424        29.20924
E33                    139167.08515      -391.79015        31.76215  26204587.14214    150456.50314      -299.52014        28.90514
> 2022 11 18 11 03 54.0000141  0 39                      
G04  21743414.54716   1751315.76516     -1851.33116        37.42916                                                                
G07  24508643.81915   -936842.96915      3149.17515        34.86115                                                                
G08  21258970.92126  -2581286.60126      2393.30126        39.81126  21258973.91926  -1777253.17226      1787.79626        36.76826
G09  22471373.29216   -477134.47316       182.24016        36.13016  22471372.99226   -370313.58326       134.18126        35.52926
G16  20777690.10415    724275.11315     -1373.19315        34.63115                                                                
G18  24106246.49314    241324.07814     -1051.13214        23.95714                                                                
G26  22203039.25615     64444.07815     -2337.09315        33.04815  22203042.25415    132206.03515     -1743.45415        34.29915
G27  19883552.50316   -821425.67916       229.43016        37.98016  19883556.40016   -687973.87016       171.06616        37.18816
G31                   3212923.89513     -3344.60913        19.30613                                                                
R93                    814038.87814     -2839.51414        25.30314
R06                      1584.92221     -2009.73921         7.71421
R98  24375276.34715   -110056.83215      2905.64015        34.73815
R15  20370433.44216    374136.72716     -1108.61116        38.33516
R101                      3424.74515     -4060.12615        35.39715
R102                    106346.73621     -3943.45521         7.00021
R103                     -6149.44421      4481.46421         7.00021
R17  20123892.81915    271481.24615     -1031.92715        35.18015
R105  23369675.91015   -406952.68715      1183.01815        31.39115
J02  39181100.98816      5997.99816        33.37816        36.05816  39181104.88615      6406.67815        23.47515        32.84415
J04  37549447.55814     54420.32914      -184.45714        28.57014  37549450.25713     76376.82913      -134.89313        23.46213
J02                         9.85723      -348.29223        20.88123                                                                
C03                         2.20725      -103.41525        30.65725
C04                         1.08922       -89.75622        16.56922
C05                         0.14222      -142.43922        15.08922
C06  36027864.12915    806406.01515      -793.87315        33.60415
C07  36441870.61815   -138877.02715        83.44215        31.49115
C09  36233609.29415    140473.35715      -215.74615        30.95215
C10  37476606.38515   2500820.55615       169.91515        33.73115
C16  36252380.49916    971048.67416      -941.06516        35.57016
C19  26262067.24913   -646255.02413     -2474.20413        21.51613
C22  26403250.31016    650676.76816      -856.02116        35.53716
C27  22081308.22816  -1188392.46416       698.32116        38.88916
C28  24022811.25415   2140946.66015     -2162.15815        30.53715
C36  24510137.68515  -2647292.90715      2251.25515        34.30215
C37  24060871.40515   2247256.15515     -2068.75815        35.23815
E05                   1364927.33915     -1461.56815        31.19115                   1039948.67113     -1101.53813        23.27113
E24                     -1177.15226        38.04926        36.00126                                                                
E31                   1717219.34615     -1579.55915        33.48715  25371303.81215   2119607.93915     -1192.21915        33.78915
E33                    139560.08615      -395.12715        35.26115  26204631.21125    150759.78825      -303.28425        31.70425
> 2022 11 18 11 03 55.0000140  0 39                      
G04  21743736.52416   1753172.08516     -1853.03016        38.35516                                                                
G07  24508014.25515   -939989.89315      3147.73915        33.88515                                                                
G08  21258484.05816  -2583676.96016      2389.61116        40.07116  21258487.35516  -1779039.62416      1787.74316        38.00816
G09  22471314.23315   -477316.88115       179.39915        32.79115  22471312.73415   -370446.93015       141.50615        31.51615
G16  20777921.54416    725647.28416     -1375.51216        38.42416                                                                
G18  24106417.37515    242374.64315     -1052.49315        31.31115                                                                
G26  22203452.96915     66780.38115     -2337.87215        33.81715  22203456.86715    133951.94215     -1745.27815        34.18415
G27  19883478.45416   -821653.13316       226.56016        40.55516  19883481.75216   -688143.68916       169.68716        38.83016
G31                   3179553.44513     -3335.15213        20.34513                                                                
R93                    816885.71814     -2840.10914        26.33414
R06                      1585.00121     -2006.81521        10.04221
R98  24374702.84415   -112967.35815      2906.89315        31.13515
R15  20370603.42516    375247.24516     -1111.90716        38.29016
R101                      7486.77416     -4059.63016        40.06816
R102                    106346.64521     -3941.99321         7.00021
R103                     -6149.37721      4485.36321        12.32421
R17  20124063.70116    272517.46716     -1029.41316        37.18616
R105  23369429.78015   -408139.17615      1184.01115        30.89115
J02  39181064.71316      5965.60716        31.69916        37.24316  39181067.71116      6383.03616        23.58516        36.49516
J04  37549455.35314     54605.63514      -188.30214        26.13914  37549457.75124     76515.13624      -138.30724        23.81224
J02                         9.81122      -344.39022        14.42822                                                                
C03                         2.19525       -99.51225        33.80825
C04                         1.08421       -87.80521         7.00021
C05                         0.13321      -138.53621         7.00021
C06  36027986.14415    807200.87915      -795.55315        34.89315
C07  36441824.75015   -138956.61915        78.66415        31.28615
C09  36233623.08515    140692.32715      -219.02715        32.71715
C10  37476541.93015   2500657.48815       167.59515        30.91615
C16  36252533.99315    971992.76515      -940.81415        35.02215
C19  26262496.25213   -643773.85213     -2475.50313        23.12013
C22  26403390.61315    651534.41515      -855.81715        33.44915
C27  22081141.24416  -1189089.25516       695.78016        37.84016
C28  24023198.28616   2143111.70016     -2166.42016        35.68916
C36  24509679.90215  -2649547.93815      2263.12615        34.11015
C37  24061236.85215   2249323.27515     -2067.82815        35.19015
E05                   1366400.55515     -1458.51215        29.85115                   1041046.82413     -1099.22313        21.78113
E24                     -1177.15825        40.00025        33.86725                                                                
E31                   1718799.39615     -1576.12715        33.04715  25371572.12615   2120802.16515     -1194.96715        34.25415
E33                    139956.79415      -392.18715        33.34115  26204676.18025    151056.23325      -296.44625        32.43625
> 2022 11 18 11 03 56.0000140  0 39                      
G04  21744089.38016   1755020.71016     -1853.54916        40.10916                                                                
G07  24507408.67415   -943140.69615      3150.90215        34.18515                                                                
G08  21258026.27516  -2586064.97516      2394.55216        37.50416  21258031.07116  -1780828.85816      1786.69416        35.80016
G09  22471282.75514   -477500.49514       181.83914        29.44814                   -370589.71314       141.22014        27.10714
G16  20778185.06216    727020.14816     -1371.34016        36.55216                                                                
G18  24106619.73414    243426.82114     -1053.46914        28.41714                                                                
G26  22203898.16115     69118.36615     -2338.29515        35.36215  22203901.75925    135698.44625     -1746.50425        33.96625
G27  19883431.68716   -821882.02416       229.81016        37.56216  19883438.28216   -688312.53916       170.63416        35.95716
G31                   3179554.73113     -3331.18413        20.18913                                                                
R93                    819722.07114     -2837.81614        24.19514
R06                      1584.96521     -2005.84021         7.00021
R98  24374159.92015   -115873.42415      2908.68515        31.85915
R15  20370814.77816    376356.22916     -1110.03716        38.24516
R101                     11545.77015     -4059.11915        34.26515
R102                    106346.81122     -3941.01822        14.15222
R103                     -6149.30921      4487.31221        10.49721
R17  20124255.26816    273551.02516     -1031.75616        38.45916
R105  23369210.93215   -409322.09615      1184.37515        31.74915
J02  39181057.81815      5926.88115        33.47915        34.88015  39181061.71516      6358.06516        25.32116        35.53716
J04  37549498.52314     54793.45514      -182.28314        24.29414                     76650.44013      -153.53813        19.44713
J02                         9.79221      -342.43921         7.00021                                                                
C03                         2.19321       -97.56121         8.67721
C04                         1.08421       -85.85421         7.00021
C05                         0.13421      -136.58521         7.00021
C06  36028138.73915    807989.03015      -792.49815        33.76115
C07  36441810.06015   -139042.34415        81.88015        32.07415
C09  36233662.05815    140909.02815      -216.32915        31.48515
C10  37476508.95314   2500491.89914       169.41814        29.13914
C16  36252713.56915    972938.62315      -939.07215        33.46115
C19  26262972.32313   -641297.63013     -2468.72513        20.42813
C22  26403548.90315    652391.01215      -857.08215        31.45115
C27  22081010.23515  -1189782.78315       694.07615        34.50315
C28  24023614.09815   2145275.81015     -2167.91615        33.53115
C36  24509243.10416  -2651807.05516      2263.24616        36.04416
C37  24061632.87815   2251390.21415     -2063.96415        34.60615
E05                   1367877.88414     -1466.46114        28.21114  25179066.39514   1042154.39214     -1108.61714        25.93614
E24                     -1177.16725        41.95125        30.15425                                                                
E31                   1720379.80115     -1580.11815        34.69715  25371873.11815   2121990.79215     -1197.93115        31.99115
E33                    140351.76715      -390.97115        33.36315  26204751.12815    151350.71815      -296.16915        30.20515
> 2022 11 18 11 03 57.0000139  0 39                      
G04  21744411.05716   1756869.73716     -1852.22716        36.28316                                                                
G07  24506780.00915   -946291.42015      3149.75315        32.18815                                                                
G08  21257541.81016  -2588458.01916      2395.17416        37.84716  21257545.10816  -1782610.75016      1786.52216        36.40716
G09  22471224.29515   -477682.31215       183.58515        30.31315                   -370781.31313       141.81513        22.73313
G16  20778415.30216    728393.40416     -1371.58616        36.45016                                                                
G18  24106792.41514    244478.92714     -1057.92114        27.10614                                                                
G26  22204311.27516     71458.10316     -2337.30016        35.64016  22204318.17015    137449.26215     -1747.85115        32.91215
G27  19883360.63616   -822111.02416       230.17216        38.52016  19883364.53315   -688486.39115       168.47115        35.02315
G31                   3179550.28213     -3340.46713        19.18713                                                                
R93                    822557.41013     -2838.54013        22.33113
R06                      1584.91923     -2002.91623        20.27123
R98  24373594.51215   -118779.81315      2905.98415        33.51115
R15  20370991.65616    377464.61616     -1110.95116        37.81416
R101                     15603.28015     -4058.63215        33.51715
R102                    106346.71022     -3939.06922        14.33522
R103                     -6149.24321      4491.21121         7.00021
R17  20124415.95716    274589.00616     -1038.02816        37.94716
R105  23368957.90715   -410501.26315      1182.49915        34.31715
J02  39181020.34416      5887.66116        31.79416        36.24316  39181025.44115      6332.53115        21.81815        32.90515
J04  37549509.01614     54971.05814      -184.05214        23.51814                     76789.70913      -145.93013        17.75913
J02                         9.72423      -338.53623        19.80223                                                                
C03                         2.18223       -93.65823        22.30123
C04                         1.07721       -81.95121         7.00021
C05                         0.12521      -132.68321         7.00021
C06  36028259.85515    808784.22215      -794.67815        33.93415
C07  36441764.19215   -139124.26615        84.46215        31.66215
C09  36233679.44615    141126.90615      -215.89815        32.15915
C10  37476448.09515   2500315.77415       170.50915        32.93615
C16  36252864.36415    973881.32215      -939.20815        35.35115
C19  26263417.81413   -638834.89313     -2464.39313        20.54113
C22  26403683.21015    653248.17515      -858.75715        32.26115
C27  22080845.64916  -1190482.33816       698.42716        37.31816
C28  24024001.43015   2147438.09715     -2167.01015        34.20315
C36  24508782.92315  -2654068.31115      2258.92815        34.46215
C37  24062000.12415   2253455.29915     -2062.46015        33.75115
E05                   1369358.85314     -1465.13514        29.36814  25179323.01714   1043275.69814     -1111.00814        28.56314
E24                     -1177.17725        44.87825        31.65125                                                                
E31                   1721960.01915     -1575.55615        34.89015  25372144.73015   2123196.19815     -1195.86215        31.38915
E33                    140743.57915      -391.94415        33.53415  26204798.19614    151660.78814      -300.82314        29.08414
> 2022 11 18 11 03 58.0000138  0 39                      
G04  21744733.33416   1758718.18216     -1848.00016        36.50716                                                                
G07  24506151.04515   -949442.29515      3149.41815        31.01915                                                                
G08  21257050.45016  -2590852.62816      2394.22416        38.54316  21257060.04416  -1784406.70516      1790.46016        37.92916
G09  22471159.54015   -477868.85415       183.15815        31.96715                   -370916.22414       131.17914        23.79814
G16  20778646.14316    729763.17516     -1372.67016        36.48716                                                                
G18  24106961.49814    245531.57814     -1053.67214        26.95514                                                                
G26  22204730.68516     73793.00116     -2339.73916        37.11116  22204732.48415    139199.79815     -1748.81915        35.22615
G27  19883287.78616   -822340.31816       228.97716        37.26716  19883291.08415   -688658.74515       173.42015        34.55915
G31                   3179546.46213     -3340.48413        18.95513                                                                
R93                    825387.44813     -2830.33313        19.57713
R06                      1584.89323     -2003.89123        20.38423
R98  24373016.81215   -121686.79815      2907.51315        34.75815
R15  20371166.43516    378569.96816     -1113.98516        38.33316
R101                     19665.44015     -4057.09415        34.44015
R102                    106346.69721     -3941.50521         7.00021
R103                     -6149.45621      4493.64721         7.00021
R17  20124579.94316    275630.59916     -1038.84316        38.41816
R105  23368702.78415   -411685.72915      1183.53515        35.00215
J02  39180984.36915      5850.55215        33.63115        35.35415  39180989.16615      6305.15015        26.33515        33.68315
J04  37549509.91513     55150.97513      -185.86013        22.93913                     76927.74312      -137.23812        16.29412
J02                         9.70524      -336.58524        25.86924                                                                
C03                         2.18025       -91.70725        31.57525
C04                         1.07921       -81.95121         7.00021
C05                         0.12821      -132.68321         7.00021
C06  36028385.46815    809575.17015      -793.37415        34.85415
C07  36441718.62315   -139213.40015        84.36115        30.93215
C09  36233686.34115    141339.61915      -216.39215        33.65415
C10  37476388.13615   2500143.56215       167.77815        34.41615
C16  36253014.86016    974820.01016      -940.29916        35.73316
C19  26263866.30413   -636371.76813     -2461.68913        23.19813
C22  26403817.81715    654104.83315      -856.58715        34.73315
