     3.03           OBSERVATION DATA    M                   RINEX VERSION / TYPE
GnssLogger          Xiaomi 10           20221118 111401 UTC PGM / RUN BY / DATE
Google GnssLogger                                           MARKER NAME
G    8 C1C L1C D1C S1C C5Q L5Q D5Q S5Q                      SYS / # / OBS TYPES
R    4 C1C L1C D1C S1C                                      SYS / # / OBS TYPES
J    8 C1C L1C D1C S1C C5Q L5Q D5Q S5Q                      SYS / # / OBS TYPES
C    4 C2C L2C D2C S2C                                      SYS / # / OBS TYPES
E    8 C1C L1C D1C S1C C5Q L5Q D5Q S5Q                      SYS / # / OBS TYPES
  2022    11    18    11    14   01.0000000     GPS         TIME OF FIRST OBS
 11 R06 -4 R07  5 R101  1 R102  2 R105  5 R15  0 R17  4 R19  3 GLONASS SLOT / FRQ #
    R93 -7 R96 -4 R98 -2                                    GLONASS SLOT / FRQ #
                                                            END OF HEADER
> 2022 11 18 11 14 01.9999736  0 39                      
G04  21964039.91226   2974803.57926     -2171.86026        40.38926                                                                
G07  24131840.67427   -604365.49627      3142.03727        43.53327                                                                
G08  20987031.28113  -3946244.04613      2088.14713        20.92413  20987060.36024  -2796512.19724      1560.32524        24.75024
G09  22460596.95226   -469621.61126      -212.26926        41.37726  22460605.34626   -365079.75526      -158.52526        39.31726
G16  20932628.84325    300003.07325     -1524.11725        35.49525                                                                
G18  24236025.74924    192380.89724     -1406.98124        28.90424                                                                
G21                      -118.51221      3511.21621         7.00021                                                                
G26  22465143.30526     76162.01026     -2411.87926        36.07526  22465143.90425    -25949.97425     -1800.89125        32.92125
G27  19867743.54726   -841131.44726      -171.67426        40.40726  19867744.74725  -1261521.18725      -128.46125        32.27625
G31                   3571731.26212     -3415.62512        14.28412                                                                
R93                    422339.61513     -2932.65213        23.43213
R06                    430360.85711     -2375.17911         9.13311
R98  24028390.69125   -337439.84025      2966.07425        34.48925
R15  20494968.42926    303658.69326     -1303.41026        35.84326
R101                       148.95421     -4005.83321         7.00021
R102                    106346.30621     -4129.12721         7.00021
R19                     -6158.27323      4430.78223        17.82823
R17                    240415.06426     -1569.87626        36.13326
R105  23249735.24326   -201616.29726       703.77926        36.87626
J02  39161701.11826    -32289.30326        83.33326        37.48326  39161702.91725    -22164.68525        62.05925        33.22225
J04  37561011.75326    165713.70426      -232.45426        35.78426  37561019.24725    121846.63625      -173.49025        34.47725
J02                         9.50422      -322.92622        15.46822                                                                
C03                         0.19121       -95.61021         7.00021
C04                         0.08423       -83.90223        19.14223
C05                         0.13621      -136.58521         7.00021
C06  36113841.30825   1317276.68525      -892.49125        32.78725
C07  36421238.00226   -183039.47826        57.97826        36.29126
C09  36251738.64426    298067.69926      -309.69926        39.96726
C10  37446062.03125   2405333.15625       143.45725        33.90425
C16  36355425.46314   1570953.77714     -1036.61814        25.05114
C19                    875158.42011     -2532.68711         7.00011
C22  26506480.54527   1251654.14127     -1123.03827        45.45027
C27  22007231.61126  -1510940.65526       356.31826        38.75026
C28  24277074.53126   3528534.82926     -2402.95626        36.38426
C36  24235491.51827  -4013781.49427      2226.52627        44.07227
C37  24297064.99214   3540432.22914     -2193.87214        25.63514
E05                  -1299503.66313     -1695.80113        20.92513  25349023.83623   1765968.80623     -1284.44923        21.72923
E24  23915234.32827     -9635.31727       -23.70927        42.31227  23915240.92325    -11866.22225       -17.95625        33.61225
E31                   2686097.00915     -1612.97815        31.52215  25543346.60924   2851329.37024     -1221.69824        29.30824
> 2022 11 18 11 14 02.9999735  0 39                      
G04  21964424.54516   2976977.66216     -2174.71816        40.26816                                                                
G07  24131212.30927   -607509.50527      3144.00927        42.65627                                                                
G08  20986627.46015  -3948334.64915      2085.29915        30.39815  20986633.45624  -2798070.63524      1558.43924        26.67224
G09  22460611.04317   -469409.25217      -212.37717        41.84717  22460614.64026   -364920.98026      -158.77526        39.31126
G16  20932889.96216    301527.89316     -1525.15416        36.22116                                                                
G18  24236239.50115    193790.60015     -1410.33815        34.17815                                                                
G21                      -118.57821      3510.24021         7.00021                                                                
G26  22465570.20915     78575.75915     -2414.60115        34.38915  22465567.51125    -24148.01325     -1801.96125        32.01225
G27  19867742.94816   -840956.44116      -175.90216        39.14216  19867748.34415  -1261390.36915      -132.63015        34.50215
G31                   3575147.05912     -3416.35712        14.56812                                                                
R93                    425277.75313     -2930.97313        22.88313
R06                    432747.68611     -2370.92111         9.22611
R98  24027820.78616   -340408.13216      2967.53216        35.58016
R15  20495193.27316    304964.50416     -1309.61316        36.74316
R101                       148.87422     -4004.85822        16.61322
R102                    106346.25022     -4129.61422        13.76222
R19                     -6158.20021      4429.80721         7.00021
R17                    241987.16415     -1571.61615        35.10715
R105  23249576.05316   -202321.15516       703.93616        38.18616
J02  39161652.55216    -32371.17516        80.28216        36.46316  39161657.34925    -22224.71325        60.02825        31.63725
J04  37561033.63715    165948.79015      -236.80815        34.15315  37561036.93525    122023.33525      -176.69925        32.23525
J02                         9.52522      -323.90222        16.71122                                                                
C03                         0.18722       -95.61022        12.51822
C04                         0.08021       -83.90221         7.00021
C05                         0.12921      -134.63421         7.00021
C06  36113983.70915   1318172.07915      -898.78815        32.02115
C07  36421197.23016   -183095.61516        56.66316        37.68616
C09  36251766.22416    298380.02916      -313.93116        38.62216
C10  37446004.77025   2405190.54625       142.61025        33.77425
C16  36355597.24414   1571994.65014     -1041.29714        24.34914
C19                    877689.13511     -2530.73611         7.00011
C22  26506665.81717   1252775.52517     -1125.09917        42.69017
C27  22007137.17615  -1511294.31915       350.70815        35.39715
C28  24277505.33315   3530939.39615     -2404.44115        35.10415
C36  24235033.43516  -4016009.96516      2228.69316        41.31416
C37  24297454.72214   3542629.74514     -2201.47714        28.21114
E05                  -1297807.28913     -1692.20313        21.24713                   1767250.27512     -1285.03712        17.43012
E24  23915206.74716     -9609.80516       -23.08616        38.61216  23915213.94215    -11846.93815       -18.99315        34.35515
E31                   2687709.59615     -1614.96715        31.79415  25543622.11825   2852553.86525     -1224.49625        30.50425
> 2022 11 18 11 14 03.9999734  0 39                      
G04  21964807.38016   2979148.46116     -2171.63116        39.01816                                                                
G07  24130585.44316   -610655.28916      3145.95516        40.50016                                                                
G08  20986199.95616  -3950423.96316      2091.15516        35.89616  20986203.55415  -2799630.42915      1559.82215        33.15815
G09  22460620.33617   -469199.55217      -209.54417        41.72417  22460624.83316   -364764.31916      -155.59016        37.65816
G16  20933150.18215    303053.22215     -1522.69715        34.83915                                                                
G18  24236482.93215    195200.74915     -1410.89915        35.34015                                                                
G21                      -118.62721      3508.28921         7.00021                                                                
G26  22466000.41215     80990.23415     -2413.09515        32.36215  22465996.21415    -22344.37515     -1806.66915        32.86715
G27  19867747.14516   -840783.10316      -174.79216        37.10816  19867751.94215  -1261261.81015      -131.27915        33.85315
G31                   3578564.89612     -3419.50212        13.76212                                                                
R93                    428209.75213     -2925.84213        20.72613
R06                    435127.93511     -2376.59411        10.38911
R98  24027228.39626   -343378.38326      2970.25126        40.50926
R15  20495411.82215    306272.16415     -1305.27015        34.93915
R101                       149.07921     -4005.83321        11.63321
R102                    106346.42622     -4128.63922        15.95722
R19                     -6158.12321      4427.37121         7.00021
R17                    243559.35315     -1570.42515        34.49715
R105  23249421.06126   -203027.23626       706.08126        38.64726
J02  39161608.18315    -32454.03715        81.63215        33.93715  39161611.48114    -22288.91714        54.59414        27.73114
J04  37561053.42415    166182.30015      -237.68015        29.91215  37561050.42615    122200.16315      -178.62815        29.54815
J02                         9.56021      -325.85321         7.00021                                                                
C03                         0.18921       -95.61021         7.00021
C04                         0.08621       -87.80521         7.00021
C05                         0.13021      -132.68321         7.00021
C06  36114128.20915   1319067.24615      -896.66815        30.32715
C07  36421154.65916   -183150.49816        61.32216        36.04016
C09  36251795.90416    298689.28216      -308.17516        36.86416
C10  37445945.41116   2405044.62016       145.61816        36.54716
C16  36355769.62414   1573040.07314     -1043.10514        23.99514
C19                    880217.94111     -2530.73611         7.00011
C22  26506851.68816   1253897.66516     -1120.42816        36.80316
C27  22007038.84415  -1511648.03915       352.21515        33.16215
C28  24277955.02115   3533345.57515     -2406.25415        33.96615
C36  24234575.35326  -4018240.13426      2230.16826        40.66526
C37  24297842.05414   3544828.49514     -2202.18014        27.20014
E05                  -1296112.32813     -1696.84113        19.13813                   1768526.49813     -1280.87313        17.81413
E24  23915182.76315     -9586.61415       -23.73615        34.99115  23915189.05916    -11830.10516        -7.98916        35.66916
E31                   2689326.01215     -1619.09815        32.80015  25543899.12725   2853777.80525     -1223.94025        29.94625
> 2022 11 18 11 14 04.9999734  0 39                      
G04  21965220.49415   2981320.16215     -2173.13715        32.55815                                                                
G07  24129985.55926   -613801.17426      3145.88426        36.97926                                                                
G08  20985804.23016  -3952512.06916      2087.76116        36.68816  20985806.62826  -2801190.10526      1559.67726        37.03826
G09  22460662.60726   -468988.81026      -210.74326        39.93026  22460664.40625   -364607.04825      -157.27125        35.14925
G16  20933438.88226    304578.33026     -1525.10826        36.10326                                                                
G18  24236765.03716    196608.44916     -1408.87716        35.58616                                                                
G21                      -118.47421      3507.31421         7.00021                                                                
G26  22466461.49215     83400.23615     -2413.16515        30.43515  22466462.39225    -20540.92725     -1803.44825        31.10425
G27  19867776.82426   -840609.41926      -173.68526        39.40326  19867783.72026  -1261132.03026      -129.78026        35.58026
G31                   3581989.05912     -3414.46312        12.90212                                                                
R93                    431129.84213     -2924.13013        22.79713
R06                    437506.64311     -2378.19311         9.52911
R98  24026668.68326   -346348.91126      2970.52726        37.77926
R15  20495653.45415    307578.20415     -1306.96615        34.46415
R101                       149.00823     -4005.34523        21.92823
R102                    106346.41721     -4131.56321        10.16021
R19                     -6158.05021      4425.90921        11.28621
R17                    245132.59326     -1573.24026        36.32326
R105  23249280.15827   -203732.59527       705.35927        42.36927
J02  39161593.49326    -32536.89126        82.85526        36.88526  39161596.49114    -22350.92414        60.41514        28.93814
J04  37561096.59414    166420.63114      -234.56514        28.74514  37561093.89624    122375.43724      -175.27424        27.00424
J02                         9.57423      -327.80523        21.71323                                                                
C03                         0.19021       -97.56121         7.00021
C04                         0.08521       -89.75621         7.00021
C05                         0.12522      -132.68322        12.82622
C06  36114294.89415   1319960.02915      -893.06315        30.28615
C07  36421142.66816   -183210.27516        59.24016        36.20216
C09  36251854.96315    298998.52415      -310.23515        35.32815
C10  37445917.23126   2404898.38326       146.23726        36.13126
C16  36355966.88814   1574073.86414     -1038.76914        23.72314
C19                    882746.70511     -2528.78511         7.78411
C22  26507066.93926   1255017.91326     -1120.24826        40.83626
C27  22006970.49115  -1512000.79115       350.77415        35.11515
C28  24278412.80526   3535750.62726     -2405.05226        36.56926
C36  24234144.85126  -4020469.87326      2229.73926        40.47626
C37  24298263.86214   3547026.25014     -2196.67314        26.54914
E05                  -1294417.05813     -1703.02713        18.66513                   1769801.30312     -1275.79712        17.23312
E24  23915189.65926     -9563.53026       -23.08426        37.62026  23915193.85615    -11812.57715       -19.29615        31.44115
E31                   2690893.07915     -1617.06015        33.91015  25544218.10624   2855001.64324     -1223.83824        28.92724
> 2022 11 18 11 14 05.9999733  0 39                      
G04  21965609.32515   2983493.24115     -2176.17415        30.36315                                                                
G07  24129358.69316   -616943.17916      3145.35516        39.20916                                                                
G08  20985374.02816  -3954599.49416      2090.06416        37.12116  20985380.02425  -2802749.79925      1559.69425        34.72825
G09  22460675.79816   -468770.51716      -213.54816        38.08616  22460676.69716   -364449.50416      -157.54716        38.22816
G16  20933712.89216    306103.73216     -1527.74416        36.68016                                                                
G18  24237006.96915    198020.42615     -1412.97115        35.44815                                                                
G21                      -118.55623      3507.31423        19.10423                                                                
G26  22466893.19315     85820.39815     -2413.56215        34.93015  22466884.20015    -18732.54515     -1802.40615        30.07715
G27  19867780.12216   -840434.79716      -175.86916        38.37216  19867785.81815  -1261001.13715      -131.77015        35.43215
G31                   3585412.95312     -3422.77012        13.65512                                                                
R93                    434048.16313     -2928.79513        21.81913
R06                    439892.75811     -2368.38511         8.95711
R98  24026090.08416   -349315.56216      2970.01016        38.19916
R15  20495868.70515    308882.07015     -1307.09515        34.22515
R101                       148.94523     -4005.34523        23.00423
R102                    106346.36121     -4132.05021         8.46621
R19                     -6158.25621      4425.42221         7.00021
R17                    246703.46115     -1572.66415        35.34915
R105  23249132.96016   -204434.67516       706.81116        38.41916
J02  39161547.32515    -32618.97515        84.27515        34.30715  39161552.72125    -22415.05125        64.12725        30.61225
J04  37561098.99216    166655.48516      -234.01916        37.51016  37561108.28615    122550.53315      -175.34515        34.69215
J02                         9.58222      -327.80522        15.70222                                                                
C03                         0.19221       -97.56121         7.00021
C04                         0.08924       -91.70724        24.38924
C05                         0.12821      -132.68321         7.00021
C06  36114435.49714   1320847.29014      -890.07514        26.91414
C07  36421103.39515   -183269.44715        57.95315        33.12715
C09  36251887.04115    299307.80115      -312.41515        32.70015
C10  37445864.46715   2404757.55015       141.99215        33.02615
C16  36356142.56613   1575111.75013     -1036.26413        20.28713
C19                    885275.49011     -2528.78511         7.00011
C22  26507251.31216   1256139.58016     -1119.92116        38.76616
C27  22006873.05916  -1512355.68016       351.26516        36.74816
C28  24278850.20216   3538156.69116     -2404.74316        35.52716
C36  24233691.26516  -4022694.22616      2229.13016        39.78216
C37  24298654.79115   3549220.67115     -2196.73415        32.56215
E05                  -1292715.85713     -1695.25713        18.06713                   1771077.07012     -1286.85512        16.73512
E24  23915162.97715     -9540.20815       -24.91015        34.54015  23915166.87415    -11795.03415         0.55015        32.68615
E31                   2692509.06615     -1616.95015        34.07415  25544490.31725   2856225.44725     -1223.80425        29.87525
> 2022 11 18 11 14 06.9999732  0 39                      
G04  21965995.75814   2985665.99114     -2177.40714        27.61514                                                                
G07  24128725.23116   -620086.77516      3145.57016        36.93716                                                                
G08  20984947.12316  -3956683.98116      2085.74916        36.79816  20984953.71915  -2804307.74815      1564.63715        32.41115
G09  22460684.19216   -468557.06716      -210.65216        36.31316  22460685.69115   -364291.16315      -161.40115        34.50015
G16  20933958.42215    307628.15515     -1521.97215        35.10215                                                                
G18  24237234.21215    199433.54515     -1410.28815        34.48115                                                                
G21                      -118.45221      3509.26521         7.00021                                                                
G26  22467317.10015     88233.99215     -2414.39815        34.22015  22467315.90115    -16932.39215     -1803.45215        31.51215
G27  19867784.91916   -840261.35316      -176.16516        35.68316  19867790.61515  -1260869.04515      -133.02815        33.76315
G31                   3588834.93312     -3420.81412        14.72712                                                                
R93                    436981.79613     -2932.54913        20.29313
R06                    442275.17711     -2390.88111         9.16011
R98  24025514.18315   -352285.85015      2968.71015        35.46015
R15  20496065.36916    310186.02816     -1309.60616        37.26216
R101                       148.86524     -4004.37024        26.27024
R102                    106346.25922     -4130.10122        13.39022
R19                     -6158.19321      4427.37121         7.00021
R17                    248274.40416     -1577.24416        35.80916
R105  23248961.47916   -205142.12816       703.81916        35.64716
J02  39161503.25515    -32700.37815        81.03515        34.16915  39161505.95415    -22485.35915        62.13315        30.96315
J04  37561118.47916    166890.61716      -237.64316        35.97816  37561122.67615    122724.85615      -178.89315        33.44715
J02                         9.54223      -325.85323        20.77123                                                                
C03                         0.19021       -95.61021         7.00021
C04                         0.08724       -87.80524        24.68924
C05                         0.13121      -132.68321         7.00021
C06  36114579.39714   1321736.49014      -895.58014        28.32114
C07  36421063.52215   -183328.21415        58.97415        32.87315
C09  36251914.32215    299613.73115      -311.07015        31.64815
C10  37445803.61015   2404614.69415       142.17015        32.16015
C16                   1576153.79413     -1034.14513        18.84613
C19                    887804.27411     -2528.78511         7.00011
C22  26507438.68216   1257256.84116     -1121.17216        36.74716
C27  22006775.02715  -1512717.44415       352.95815        35.04215
C28  24279268.71216   3540559.77016     -2406.90216        36.68416
C36  24233234.38116  -4024929.82116      2231.49316        36.09216
C37  24299047.22015   3551419.30715     -2199.60215        33.13715
E05                  -1291022.10613     -1691.44413        17.57513                   1772352.16312     -1294.33812        14.03512
E24  23915137.19515     -9532.89615       -25.01015        33.01815  23915140.79315    -11791.13615         0.55015        31.38615
E31                   2694128.70315     -1621.09515        34.99215  25544761.92915   2857441.78615     -1226.36915        31.22515
> 2022 11 18 11 14 07.9999732  0 39                      
G04  21966407.67214   2987837.01714     -2176.29214        26.59514                                                                
G07  24128131.04215   -623224.30115      3146.01115        35.32615                                                                
G08  20984552.59716  -3958772.34816      2084.21416        37.61216  20984555.59415  -2805866.20415      1558.94815        30.79515
G09  22460718.36816   -468347.47016      -214.90716        36.53816  22460727.36215   -364126.87515      -161.63315        34.97215
G16  20934254.01815    309155.31015     -1530.84015        33.12615                                                                
G18  24237509.42116    200849.07316     -1415.26616        37.09116                                                                
G21                      -118.48521      3506.33821         7.00021                                                                
G26  22467765.88915     90651.18215     -2412.99215        35.24015  22467770.98615    -15130.33615     -1809.02015        31.62515
G27  19867822.09316   -840093.00116      -175.59516        37.13016  19867822.69315  -1260738.56115      -132.47015        33.30615
G31                   3592258.92712     -3418.61912        14.95512                                                                
R93                    439921.23914     -2939.61114        23.88714
R06                    444645.16811     -2391.15911         8.30011
R98  24024959.56715   -355250.51515      2963.90915        34.69015
R15  20496313.59716    311495.11016     -1310.98816        36.68116
R101                       149.08824     -4006.32024        28.64324
R102                    106346.47221     -4131.07621         7.00021
R19                     -6158.11521      4424.44721         9.39521
R17                    249860.11415     -1578.54415        34.61715
R105  23248832.26815   -205850.50915       703.02515        34.99415
J02  39161486.76715    -32778.79315        80.87015        33.52015  39161489.46515    -22543.77815        61.07915        31.87715
J04  37561162.84816    167132.34616      -234.35516        35.54516  37561168.84415    122898.72415      -174.89015        33.21715
J02                         9.59022      -328.78022        17.17522                                                                
C03                         0.19021       -97.56121         7.00021
C04                         0.08524       -89.75624        24.43024
C05                         0.12621      -132.68321         7.00021
C06  36114750.87815   1322629.71615      -894.57115        32.37715
C07  36421050.63115   -183390.11315        55.98315        31.37815
C09  36251975.18015    299921.23515      -310.13715        31.40315
C10  37445772.13115   2404470.45315       144.26615        32.18315
C16  36356506.81413   1577194.04713     -1039.92013        21.51813
C19                    890334.98911     -2528.78511         7.00011
C22  26507653.33316   1258382.13816     -1125.06716        36.45416
C27  22006702.47715  -1513071.38515       351.78915        35.28215
C28  24279732.19116   3542971.85616     -2408.64116        38.10016
C36  24232805.97815  -4027164.36215      2225.69815        35.42915
C37  24299475.32315   3553619.76615     -2196.32315        33.33515
E05                  -1289325.23312     -1687.56012        16.71512                   1773645.25212     -1291.33012        15.32012
E24  23915141.09215     -9499.82415       -24.39515        31.67815  23915145.28914    -11782.86014       -18.82014        29.12414
E31                   2695755.74315     -1622.05515        34.91815  25545077.91115   2858666.26815     -1225.84815        30.82015
> 2022 11 18 11 14 08.9999731  0 39                      
G04  21966792.00614   2990008.34814     -2177.62514        27.35214                                                                
G07  24127503.57716   -626368.18416      3141.40816        39.57216                                                                
G08  20984123.59416  -3960854.96716      2082.57416        37.29016  20984128.09015  -2807418.81915      1549.35315        32.09815
G09  22460733.35816   -468128.88616      -220.57316        37.81116  22460738.45416   -363959.96216      -162.52816        35.90216
G16  20934517.83515    310684.87815     -1529.99215        32.44315                                                                
G18  24237758.84915    202263.20215     -1415.76115        35.14715                                                                
G21                      -118.58321      3507.31421        12.20221                                                                
G26  22468208.08316     93068.59816     -2414.60316        36.47116  22468205.68515    -13325.96015     -1794.88715        31.16915
G27  19867823.89216   -839913.79016      -181.03716        35.63516  19867828.38915  -1260600.75315      -131.80715        32.21815
G31                   3595681.24512     -3422.33212        15.21812                                                                
R93                    442862.68414     -2937.82814        23.98814
R06                    447025.70511     -2389.93711         9.66711
R98  24024370.17515   -358213.65515      2964.40615        34.16715
R15  20496527.05015    312807.66415     -1311.49715        35.40015
R101                       149.03425     -4006.80725        29.95225
R102                    106346.47222     -4134.48722        16.66522
R19                     -6158.04723      4424.93423        17.84823
R17                    251436.74616     -1575.40016        37.06516
R105  23248673.97816   -206541.82416       699.43916        36.27916
J02  39161441.19815    -32866.76315        82.70015        33.28715  39161443.89715    -22608.09915        60.25615        31.92415
J04  37561175.43916    167370.18116      -235.49416        37.65016  37561184.43316    123070.71616      -176.49116        35.75316
J02                         9.58422      -327.80522        14.51422                                                                
C03                         0.19323       -97.56123        17.95323
C04                         0.08724       -89.75624        24.65024
C05                         0.13321      -136.58521         7.00021
C06  36114893.87915   1323518.89415      -893.99815        31.40615
C07  36421009.56015   -183446.38215        56.29615        31.34415
C09  36252006.35815    300231.64115      -314.28015        30.45915
C10  37445717.26915   2404332.74415       141.00015        31.63315
C16                   1578233.63713     -1049.09913        19.97813
C19                    892867.28611     -2530.73611         7.00011
C22  26507837.10616   1259513.18016     -1128.43016        38.07516
C27  22006613.13916  -1513424.63316       349.55916        36.57316
C28  24280170.18816   3545383.01316     -2410.13616        35.62216
C36  24232346.69516  -4029384.46516      2219.75116        35.74716
C37  24299860.55715   3555816.99315     -2199.35715        33.66015
E05                  -1287626.91612     -1690.61312        16.29012                   1774920.01312     -1289.63212        12.73912
E24  23915118.90815     -9464.06715       -25.79515        33.02115  23915123.10525    -11762.70325       -20.15725        31.76925
E31                   2697384.64915     -1619.53115        33.30615  25545351.02115   2859905.90815     -1226.93115        30.26515
> 2022 11 18 11 14 09.9999730  0 39                      
G04  21967180.23814   2992182.25114     -2181.01214        27.63414                                                                
G07  24126869.51616   -629512.87216      3139.70216        38.45716                                                                
G08  20983697.88816  -3962946.70816      2084.65116        36.52816  20983703.28415  -2808968.48515      1555.11015        32.38315
G09  22460746.54916   -467903.87516      -218.81816        37.10516  22460748.94715   -363795.21015      -162.24315        34.31715
G16  20934781.65215    312213.80215     -1528.61515        34.48515                                                                
G18  24238000.48115    203679.10515     -1416.78415        34.02115                                                                
G21                      -118.46321      3508.28921         8.71021                                                                
G26  22468637.38615     95481.95315     -2413.67415        35.32515  22468633.18915    -11529.28515     -1800.77015        30.68815
G27  19867828.38915   -839732.96215      -181.64115        35.43415  19867831.08715  -1260461.45715      -134.59215        33.74215
G31                   3599104.83212     -3420.54312        15.67512                                                                
R93                    445804.74814     -2936.47214        24.57914
R06                    449416.97811     -2394.87011         9.54511
R98  24023768.49115   -361174.97615      2965.39015        30.54715
R15  20496749.19616    314124.23816     -1308.85316        37.89916
R101                       148.98025     -4007.29525        32.59525
R102                    106346.40721     -4134.48721         7.00021
R19                     -6158.25621      4425.42221         7.00021
R17                    253019.53616     -1581.66916        36.71716
R105  23248491.70415   -207236.39215       693.46415        35.03315
J02  39161394.73115    -32946.23615        78.93415        32.94315  39161398.62815    -22666.90515        60.24415        32.22415
J04  37561193.72716    167605.11516      -234.42716        37.78516  37561198.52315    123248.66215      -175.33415        34.44715
J02                         9.55823      -326.82923        20.17723                                                                
C03                         0.19523       -97.56123        18.38723
C04                         0.08824       -87.80524        28.67724
C05                         0.13822      -138.53622        16.81222
C06  36115036.28115   1324410.48415      -895.44315        31.44815
C07  36420969.68715   -183505.56315        57.32715        31.20815
C09  36252036.33715    300544.32315      -315.09615        30.50215
C10  37445658.81015   2404185.81415       141.87915        30.57515
C16  36356856.67213   1579279.27613     -1043.95313        22.99513
C19                    895400.38511     -2532.68711         7.00011
C22  26508025.67616   1260643.38616     -1126.98816        37.04716
C27  22006516.00616  -1513773.78016       347.98016        37.42416
C28  24280603.98816   3547792.18516     -2409.02316        35.58316
C36  24231881.71715  -4031598.35215      2221.04315        34.76115
C37  24300253.58515   3558013.28115     -2200.06415        33.78215
E05                  -1285926.47912     -1695.15112        16.33912                   1776200.09011     -1281.15711        10.40811
E24  23915092.82615     -9433.73815       -28.93415        32.41015  23915096.72315    -11742.33715       -22.54315        31.68415
E31                   2699005.96116     -1615.91516        35.91716  25545628.03015   2861143.66115     -1223.49315        30.79915
> 2022 11 18 11 14 10.9999730  0 39                      
G04  21967596.35014   2994357.86914     -2180.70214        28.19114                                                                
G07  24126283.42216   -632652.69716      3141.40816        36.61016                                                                
G08  20983300.36316  -3965037.04716      2085.05716        37.42916  20983305.76015  -2810525.21415      1554.36815        33.67215
G09  22460778.92616   -467680.85816      -217.08716        37.76616  22460790.61815   -363634.57115      -163.53915        35.25115
G16  20935070.05315    313740.75715     -1531.40015        35.37615                                                                
G18  24238266.39715    205097.84015     -1414.55115        32.34715                                                                
G21                      -118.54521      3508.28921         7.00021                                                                
G26  22469098.46716     97896.52016     -2418.56616        36.06216  22469097.86715     -9722.69615     -1813.98515        33.14615
G27  19867863.46415   -839556.66615      -180.46115        35.35615  19867867.96115  -1260332.81215      -135.39515        33.81815
G31                   3602524.46812     -3423.03112        15.91312                                                                
R93                    448745.60114     -2936.01714        25.18414
R06                    451803.96011     -2394.33211         8.68511
R98  24023215.97415   -364144.77215      2965.04515        31.12115
R15  20497003.72016    315435.09216     -1311.51816        36.57316
R101                       148.90925     -4006.80725        32.22225
R102                    106346.35222     -4134.97522        12.73122
R19                     -6158.18721      4425.42221         7.00021
R17                    254598.42916     -1584.06816        35.70416
R105  23248378.08316   -207928.84016       694.22116        36.26716
J02  39161387.83515    -33027.84115        84.54615        32.93215  39161384.83715    -22722.42515        59.76915        33.47215
J04  37561233.29916    167838.39016      -236.25916        37.07116  37561243.49225    123425.60125      -176.93925        32.61125
J02                         9.56622      -326.82922        14.34022                                                                
C03                         0.19123       -97.56123        22.95423
C04                         0.08424       -87.80524        28.18724
C05                         0.13121      -136.58521         7.00021
C06  36115204.16415   1325309.02115      -895.13715        31.88615
C07  36420957.99515   -183563.35015        56.10115        30.98415
C09  36252094.19714    300854.02614      -313.67714        29.12914
C10  37445631.22915   2404047.21515       142.77815        29.51815
C16  36357043.44314   1580315.35514     -1035.57314        25.80414
C19                    897933.07311     -2532.68711         7.00011
C22  26508243.02516   1261769.13616     -1127.96816        36.33116
C27  22006448.55316  -1514116.33216       346.72016        36.86316
C28  24281065.36816   3550208.08016     -2415.77416        35.51216
C36  24231462.00815  -4033819.38815      2222.26315        35.36815
C37  24300678.69016   3560215.01916     -2205.32516        36.21616
E05                  -1284227.62312     -1695.21912        15.54412                   1777475.09212     -1283.87912        12.82012
E24  23915098.82215     -9396.15515       -32.29515        32.30415  23915102.71915    -11709.67515       -22.05415        33.38715
E31                   2700617.18816     -1628.14816        35.96616  25545937.11615   2862370.12315     -1226.97315        31.25215
> 2022 11 18 11 14 11.9999729  0 39                      
G04  21967976.78614   2996534.49314     -2178.52214        28.76014                                                                
G07  24125641.56616   -635785.82016      3139.50716        36.42716                                                                
G08  20982875.25816  -3967123.12016      2085.62516        38.91716  20982877.65615  -2812078.28515      1556.16615        32.14515
G09  22460799.61216   -467463.52116      -217.08716        35.75816  22460802.31015   -363469.81315      -163.53915        34.68715
G16  20935332.97116    315272.47316     -1529.40716        35.55916                                                                
G18  24238496.63815    206518.22215     -1418.80515        32.05015                                                                
G21                      -118.64421      3509.26521         7.00021                                                                
G26  22469519.97515    100314.49915     -2418.35715        33.39615  22469525.67115     -7913.88715     -1806.20615        34.13215
G27  19867870.06015   -839378.24015      -181.94015        35.05515  19867870.95915  -1260202.53315      -134.38115        35.00215
G31                   3605946.09712     -3424.53812        15.74212                                                                
R93                    451681.09014     -2937.58214        24.91114
R06                    454191.23511     -2388.83911         8.57811
R98  24022641.27215   -367105.89315      2965.61415        33.86115
R15  20497205.48016    316743.01316     -1310.41216        37.06616
R101                       149.06225     -4004.85825        31.52725
R102                    106346.58321     -4136.92421         7.00021
R19                     -6158.11921      4425.90921         7.00021
R17                    256180.43116     -1584.41516        35.95916
R105  23248217.39416   -208617.12116       691.42016        36.41616
J02  39161336.57115    -33103.25515        76.90615        33.65215  39161338.37015    -22778.47415        59.58515        33.46015
J04  37561254.28515    168073.71315      -235.05915        33.99815  37561260.58015    123599.29515      -171.36915        29.59315
J02                         9.57322      -326.82922        16.78822                                                                
C03                         0.19324       -97.56124        27.43424
C04                         0.08823       -89.75623        20.69923
C05                         0.13221      -134.63421        10.53321
C06  36115350.46315   1326205.55715      -896.82815        33.06715
C07  36420915.72515   -183619.05515        54.48115        29.91915
C09  36252126.87515    301169.57515      -311.39215        30.54615
C10  37445574.86814   2403908.37514       143.41314        29.40614
C16  36357215.22415   1581350.24615     -1040.11215        29.84415
C19                    900463.83011     -2532.68711         7.00011
C22  26508433.99315   1262899.71315     -1126.69415        35.14515
C27  22006350.22116  -1514466.17316       346.33916        38.58516
C28  24281500.06715   3552619.04215     -2414.56015        32.03215
C36  24231003.62516  -4036040.98816      2220.30916        35.76716
C37  24301071.11916   3562423.75316     -2203.41016        36.65116
E05                  -1282525.35812     -1699.26112        16.19012                   1778746.65111     -1274.96111         8.29311
E24  23915076.03715     -9367.56415       -34.97015        29.76115  23915079.33515    -11680.41615       -24.55715        31.30915
E31                   2702248.07615     -1619.24715        33.17415  25546215.32315   2863604.65215     -1232.37315        30.93615
> 2022 11 18 11 14 12.9999728  0 39                      
G04  21968359.62114   2998711.89014     -2179.15414        28.43014                                                                
G07  24125023.09415   -638926.28015      3144.21715        35.42415                                                                
G08  20982447.75416  -3969209.24016      2082.70516        38.41416  20982452.55015  -2813638.07615      1558.71215        33.65315
G09  22460811.00415   -467241.24615      -217.08715        35.35115  22460814.00215   -363306.78815      -167.15515        34.61815
G16  20935588.69416    316808.17216     -1533.32416        36.69016                                                                
G18  24238738.87015    207944.20815     -1417.95515        33.02715                                                                
G21                      -118.52321      3510.24021         7.00021                                                                
G26  22469955.87316    102735.60816     -2416.19916        36.97116  22469957.07215     -6108.23015     -1806.37615        33.82015
G27  19867872.45816   -839197.97716      -179.87416        36.54516  19867875.45615  -1260065.84915      -135.08715        34.91015
G31                   3609364.03712     -3426.20812        16.12512                                                                
R93                    454622.07614     -2937.04514        26.10114
R06                    456572.89311     -2387.46911         8.41911
R98  24022055.77715   -370068.48215      2967.98515        32.51415
R15  20497420.13116    318054.19416     -1313.52816        37.34416
R101                       148.97324     -4003.39624        29.22624
R102                    106346.55522     -4138.87322        13.55322
R19                     -6158.05421      4427.37121         7.00021
R17                    257761.37015     -1590.36315        34.72215
R105  23248078.89015   -209308.33215       692.69715        33.32915
J02  39161288.60415    -33180.92415        80.96115        35.30315  39161293.40115    -22837.32115        57.19915        33.15315
J04  37561268.97525    168309.41825      -235.70525        33.23325  37561275.57014    123773.76514      -178.46914        28.23714
J02                         9.53323      -324.87823        22.29823                                                                
C03                         0.18624       -95.61024        26.04124
C04                         0.08323       -87.80523        20.65023
C05                         0.12721      -134.63421        11.43921
C06  36115488.96715   1327098.18715      -892.91515        31.79015
C07  36420875.25315   -183671.30715        56.89415        29.86115
C09  36252155.35515    301481.95715      -311.04715        29.87115
C10  37445517.60815   2403765.14315       145.61515        30.17615
C16  36357387.90415   1582390.03715     -1043.31415        30.85615
C19                    902994.54511     -2530.73611         7.00011
C22  26508619.26515   1264031.86915     -1129.83615        34.23915
C27  22006254.88716  -1514811.78416       345.40116        38.24816
C28  24281923.67415   3555029.79615     -2415.41615        31.03315
C36  24230544.64315  -4038261.66715      2226.70215        35.31215
C37  24301463.84716   3564628.36016     -2204.64716        36.64416
E05                  -1280823.68712     -1702.87312        16.07312                   1780021.84711     -1290.71311         7.00011
E24  23915052.65415     -9350.18715       -34.50415        29.54415  23915053.85315    -11657.59615       -18.82515        30.67715
E31                   2703878.45816     -1623.63516        35.75916  25546498.92714   2864846.11614     -1228.62614        29.16614
> 2022 11 18 11 14 13.9999727  0 39                      
G04  21968746.65314   3000889.62414     -2180.90114        26.13114                                                                
G07  24124399.82615   -642070.08315      3139.84015        33.79315                                                                
G08  20982023.54716  -3971292.80716      2085.21816        37.38116  20982025.04615  -2815198.86415      1556.15115        34.66115
G09  22460820.89715   -467014.91015      -216.66215        34.98415  22460827.19315   -363148.94515      -159.81515        33.73015
G16  20935854.01015    318341.19315     -1531.95915        34.54015                                                                
G18  24238964.31415    209366.77615     -1421.65515        35.12315                                                                
G21                      -118.60521      3510.24021         9.72021                                                                
G26  22470381.87816    105155.03516     -2419.45916        36.37416  22470385.77615     -4302.43015     -1807.49915        32.09215
G27  19867877.55516   -839015.83216      -181.32116        38.00716  19867879.65325  -1259930.40025      -135.44925        34.29525
G31                   3612788.36512     -3420.59812        15.79312                                                                
R93                    457556.76413     -2933.25713        23.13013
R06                    458956.94411     -2399.42611         8.51711
R98  24021481.07515   -373033.31315      2964.46915        32.72315
R15  20497635.38215    319367.82415     -1314.30915        34.30215
R101                       148.89224     -4002.42124        26.24524
R102                    106346.50021     -4139.36021         7.00021
R19                     -6158.26221      4427.37121         7.91421
R17                    259354.14515     -1584.81415        35.31515
R105  23247908.60815   -210000.90515       689.64915        34.55215
J02  39161246.63315    -33261.81315        81.81515        34.19915  39161248.13215    -22897.92115        58.25515        32.46315
J04  37561284.86415    168544.09915      -233.10315        30.42515                    123954.89813      -187.85513        23.04913
J02                         9.54123      -324.87823        20.22323                                                                
C03                         0.18824       -95.61024        23.86124
C04                         0.08722       -89.75622        16.56922
C05                         0.12821      -132.68321         7.00021
C06  36115631.96815   1327982.54215      -892.39715        33.47315
C07  36420835.38015   -183729.07915        58.36415        29.60815
C09  36252185.93415    301794.88015      -311.19015        29.55715
C10  37445465.14414   2403625.00914       145.10714        28.94714
C16  36357558.18615   1583428.63915     -1039.01215        31.93415
C19                    905523.35111     -2530.73611         7.42511
C22  26508804.53615   1265159.96115     -1129.05315        32.36115
C27  22006156.85516  -1515158.57916       346.96116        38.92816
C28  24282358.37315   3557441.37315     -2414.59315        34.65415
C36  24230092.85615  -4040485.08815      2225.16115        32.91015
C37  24301854.77615   3566828.10715     -2203.21515        34.53915
E05                  -1279125.04912     -1703.56012        16.59112                   1781299.82111     -1274.96111        10.85811
E24  23915025.67214     -9328.39214       -36.24214        29.37514  23915029.57014    -11635.83614       -19.14314        28.70514
E31                   2705498.66915     -1620.97515        35.04515  25546770.83914   2866086.81814     -1226.16514        29.35514
> 2022 11 18 11 14 14.9999727  0 39                      
G04  21969165.46313   3003073.46913     -2175.44013        23.49213                                                                
G07  24123791.24716   -645208.38116      3136.04616        36.24816                                                                
G08  20981628.72116  -3973377.74516      2082.32316        35.80716  20981629.92015  -2816756.73715      1555.64215        35.41115
G09  22460867.66516   -466789.74816      -225.55416        36.04116  22460869.16415   -362980.08215      -160.82015        33.67615
G16  20936140.31216    319873.82616     -1530.41516        36.50716                                                                
G18  24239241.92215    210786.99415     -1421.32615        34.32515                                                                
G21                      -118.48521      3511.21621         7.00021                                                                
G26  22470841.46016    107575.32816     -2414.76916        37.65716  22470845.05815     -2497.78615     -1805.29515        33.77015
G27  19867910.83226   -838835.35526      -180.47726        37.40226  19867916.52815  -1259794.72315      -134.75815        34.86515
G31                   3616215.10912     -3421.73012        15.72412                                                                
R93                    460494.53214     -2934.32414        25.84814
R06                    461340.97811     -2387.41411         7.65711
R98  24020911.46915   -375994.45115      2961.97415        32.10015
R15  20497883.61016    320678.99816     -1308.84916        36.83616
R101                       148.81323     -4001.44723        22.35023
R102                    106346.46321     -4140.82221         7.00021
R19                     -6158.19521      4427.85821         7.00021
R17                    260942.81816     -1584.67316        36.93316
R105  23247786.29215   -210689.19915       690.68215        35.26815
J02  39161224.44815    -33344.79215        82.58415        33.76315  39161233.14215    -22959.87015        62.21615        32.72915
J04  37561340.32514    168777.04314      -230.04214        26.30914                    124105.73113      -183.01313        18.95413
J02                         9.51522      -323.90222        16.04522                                                                
C03                         0.19023       -95.61023        19.34523
C04                         0.08923       -89.75623        17.76723
C05                         0.13121      -132.68321         7.00021
C06  36115804.94915   1328877.65715      -896.25715        33.20215
C07  36420825.48715   -183781.12315        56.93615        29.54415
C09  36252245.89215    302107.71015      -314.01715        30.15515
C10  37445434.26515   2403484.27915       141.67215        30.16315
C16  36357757.84815   1584467.35315     -1037.19115        32.19915
C19                    908052.11511     -2528.78511         7.00011
C22  26509025.78315   1266290.22415     -1126.74815        31.96615
C27  22006087.00316  -1515506.46116       350.63316        39.32216
C28  24282823.35115   3559847.87015     -2409.48415        35.26815
C36  24229668.94915  -4042700.41915      2220.17715        32.27515
C37  24302278.08316   3569026.66616     -2196.12016        35.95916
E05                  -1277424.12212     -1703.51012        16.01012                   1782573.06711     -1268.76511        11.82611
E24  23915029.27015     -9299.05615       -36.24215        30.24415  23915035.26614    -11613.63614       -22.83614        29.02314
E31                   2707111.07816     -1622.05316        35.66416  25547081.42415   2867334.97315     -1226.13715        32.94615
> 2022 11 18 11 14 15.9999726  0 39                      
G04  21969540.80314   3005242.90814     -2172.06414        27.20214                                                                
G07  24123173.97416   -648350.10216      3139.22316        35.92516                                                                
G08  20981203.01516  -3975461.04716      2080.15016        36.29716  20981203.01515  -2818311.05015      1556.96715        34.83915
G09  22460881.75515   -466562.50215      -223.34815        34.56915  22460882.35515   -362812.12615      -170.10515        32.93715
G16  20936405.92816    321412.79616     -1533.09916        36.54016                                                                
G18  24239481.45615    212215.75515     -1417.48015        34.93315                                                                
G21                      -118.55121      3510.24021         7.00021                                                                
G26  22471272.86216    109995.55316     -2414.75616        36.74716  22471274.66016      -692.19316     -1804.96216        35.91616
G27  19867916.22816   -838653.95316      -182.18016        38.39416  19867919.22615  -1259660.65015      -135.80015        34.77815
G31                   3619636.38012     -3420.53612        15.08312                                                                
R93                    463428.39614     -2934.34614        28.39814
R06                    463731.56711     -2387.02711         7.78711
R98  24020319.07915   -378957.83015      2962.24215        32.67215
R15  20498102.15916    321989.79316     -1311.19916        38.19316
R101                       149.04421     -4003.88321        10.27521
R102                    106346.61121     -4138.38621         7.00021
R19                     -6158.12221      4426.88421         7.00021
R17                    262526.73316     -1584.76016        37.67316
R105  23247619.90815   -211377.06615       688.00815        32.66415
J02  39161180.97916    -33426.95216        85.01816        35.89916  39161186.67515    -23021.48115        61.30715        33.19315
J04  37561355.61514    169002.41314      -230.54814        23.71914                    124269.57512      -165.86312        16.17912
J02                         9.53621      -324.87821         7.00021                                                                
C03                         0.18721       -95.61021         7.00021
C04                         0.08321       -87.80521         7.00021
C05                         0.13021      -136.58521         7.00021
C06  36115944.65215   1329771.81615      -893.43715        33.95015
C07  36420784.41614   -183836.49714        55.79714        28.51114
C09  36252274.97214    302413.86314      -313.02914        29.12714
C10  37445375.20615   2403334.17615       145.75515        30.02615
C16  36357924.53315   1585498.78715     -1038.18315        31.29115
C19                    910584.75911     -2528.78511         7.00011
C22  26509208.35715   1267423.13415     -1134.07915        32.41415
C27  22005995.26616  -1515854.12516       348.82916        38.74116
C28  24283247.25816   3562256.70716     -2413.79216        36.47716
C36  24229202.17215  -4044917.12915      2222.86015        33.32715
C37  24302677.10716   3571229.27316     -2197.60916        35.86916
E05                  -1275722.37612     -1703.14512        15.50412                   1783850.92612     -1285.23112        16.50312
E24  23915007.68515     -9255.63615       -32.06115        30.72115  23915011.58215    -11595.65715       -20.33915        30.73315
E31                   2708723.62816     -1618.73816        36.18616  25547357.23315   2868552.43615     -1228.15715        32.05215
> 2022 11 18 11 14 16.9999724  0 39                      
G04  21969925.13715   3007417.87315     -2175.59915        31.29915                                                                
G07  24122544.41015   -651484.62615      3137.35215        34.84515                                                                
G08  20980772.81316  -3977545.54216      2083.40216        39.35616  20980775.51116  -2819877.11716      1556.79616        36.39716
G09  22460886.85216   -466341.00416      -221.34816        36.61816  22460893.74715   -362645.25615      -170.18915        33.58615
G16  20936662.85016    322946.98116     -1530.06416        35.62616                                                                
G18  24239724.28815    213629.25315     -1420.02815        35.02415                                                                
G21                      -118.64921      3511.21621        12.27421                                                                
G26  22471701.86516    112412.58916     -2416.58416        37.00016  22471705.76216      1112.67416     -1801.63316        35.74516
G27  19867919.52626   -838472.71326      -181.24026        37.92026  19867923.72315  -1259520.06015      -136.56315        34.54015
G31                   3623056.51412     -3422.48112        15.00012                                                                
R93                    466362.31914     -2933.53314        26.25014
R06                    466119.61711     -2391.80011         7.61911
R98  24019736.28315   -381922.82415      2967.36215        31.69615
R15  20498319.50916    323304.52216     -1309.59316        38.67516
R101                       148.98122     -4003.88322        13.65922
R102                    106346.56421     -4139.36021        12.39521
R19                     -6158.05621      4427.85821         7.00021
R17                    264111.44016     -1585.34316        36.74616
R105  23247466.11415   -212060.04415       690.07915        31.91715
J02  39161137.20916    -33510.78816        85.96016        35.91716  39161140.50715    -23079.13115        59.82615        33.47915
J04  37561361.91013    169236.50013      -230.15713        20.80713                    124456.19712      -174.26712        15.48712
J02                         9.53021      -323.90221         7.00021                                                                
C03                         0.18924       -95.61024        27.40324
C04                         0.08421       -85.85421         7.00021
C05                         0.13321      -136.58521         7.00021
C06  36116085.25415   1330664.22815      -891.56215        33.23915
C07  36420744.24314   -183898.77414        57.31914        28.46714
C09  36252307.05015    302722.21115      -311.85215        30.35515
C10  37445325.14115   2403185.13415       145.02615        29.73715
C16  36358096.31415   1586536.51615     -1036.70515        34.79315
