     3.03           OBSERVATION DATA    M                   RINEX VERSION / TYPE
GnssLogger          Xiaomi 10           20221118 120136 UTC PGM / RUN BY / DATE
Google GnssLogger                                           MARKER NAME
G    8 C1C L1C D1C S1C C5Q L5Q D5Q S5Q                      SYS / # / OBS TYPES
R    4 C1C L1C D1C S1C                                      SYS / # / OBS TYPES
J    8 C1C L1C D1C S1C C5Q L5Q D5Q S5Q                      SYS / # / OBS TYPES
C    4 C2C L2C D2C S2C                                      SYS / # / OBS TYPES
E    8 C1C L1C D1C S1C C5Q L5Q D5Q S5Q                      SYS / # / OBS TYPES
  2022    11    18    12    01   36.0000000     GPS         TIME OF FIRST OBS
 7 R09 -2 R105  5 R106  6 R15  0 R17  4 R19  3 R96 -4         GLONASS SLOT / FRQ #
                                                            END OF HEADER
> 2022 11 18 12 01 36.0003707  0 37                      
G04                    999369.88112     -3143.08912        14.35412                                                                
G07  22448907.74527  -1554742.31327      2727.95527        43.56527                                                                
G08  20207921.64727   -391737.89427       546.13427        44.46927  20207926.44426   -349590.54926       408.03626        37.59326
G09                    946785.74213     -1854.67213        19.02213                    795045.82811     -1376.36111         9.71611
G16  21867504.04225    848124.45725     -2107.22225        33.79325                                                                
G18                      2741.06621     -2805.85121         7.00021                                                                
G21  22729109.96526  -1043958.54526      3314.45126        36.54226                                                                
G26  23798662.12914    847666.29014     -2709.60314        28.30514  23798660.03014    631453.21714     -2023.36714        29.47314
G27  20366582.30826    914428.32726     -1794.27826        41.45226  20366585.00725    772044.87325     -1339.82425        32.93525
R09  22333650.73525  -1239211.82825      3102.11825        35.29025
R15                   1221404.97525     -2320.14925        35.01825
R19                   -727317.15014      3414.59014        25.99014
R17  21612041.59525   1503079.66925     -3548.45125        34.24625
R105  23419107.78927    612719.56727     -1499.08727        43.17927
J02  38994763.18725   -164201.95425       306.68525        35.23625  38994768.88325   -139307.40525       229.03925        32.08925
J04  37682513.43926    222924.28226      -431.00226        38.02326  37682524.83126    186579.23926      -321.87826        38.14726
J02                     32897.91412      -216.00212        13.36712                     45920.39911      -146.35111         7.00011
C01                         0.09025       -91.70725        33.10525
C03                         3.08421       -85.85421         7.00021
C04                         0.08424       -85.85424        26.51024
C05                         0.12421      -126.82921         7.00021
C06  36666712.26315    708200.51315     -1339.68915        32.26515
C07  36348919.96626   4086446.23026         4.10126        38.72526
C09  36489605.37226   1764163.14726      -781.99526        36.86926
C10  37325993.95225    -56843.76625        93.76425        34.49425
C16  36982839.81315    771971.66715     -1462.12315        35.23215
C22                    821671.19511     -2031.22411         7.00011
C27  22182966.05226    565155.77926     -1181.81026        37.62726
C28  25766227.61214    895681.51114     -3143.25114        27.34814
C29                   -975468.58912      3248.37512        14.83012
C36  23040054.10227  -1054002.90427      1857.56227        42.48327
C37  25598372.91515   1471664.16115     -2757.86915        30.56015
E03                    132652.27617      -536.61917        42.17917  26822309.20225    100949.15125      -404.87625        34.34125
E05                        19.90523     -2487.80223        18.03523                                                                
E10                        -5.93126      1973.65726        38.80726                                                                
E24  23957425.02026    157028.46826      -360.75326        39.30126  23957432.81425   1003441.41525      -272.76525        31.92125
E33  26926836.33925     14855.12125     -1954.18925        32.18425  26926847.13224   -297216.16124     -1477.92524        29.13524
> 2022 11 18 12 01 37.0003705  0 38                      
G04                   1002516.24412     -3143.33512        14.70512                                                                
G07  22448357.32627  -1557470.21927      2727.90627        41.87527                                                                
G08  20207778.94627   -392282.34727       544.45327        41.84527  20207795.73426   -349997.15626       406.60626        37.46926
G09                    948639.89713     -1857.60813        18.40613                    796420.72811     -1379.56311         7.00011
G16  21867878.18325    850232.78825     -2108.33125        33.09425                                                                
G18                      2740.95621     -2805.85121         7.00021                                                                
G21  22728447.12326  -1047271.18826      3312.64326        37.46226                                                                
G26  23799148.99224    850376.98924     -2710.69924        25.50424  23799143.89614    633476.84514     -2021.52414        26.26214
G27  20366893.19326    916223.41926     -1795.09226        39.88726  20366898.88925    773385.80125     -1340.92725        34.99425
R96                       128.43722     -3395.69922        14.67822
R09  22333050.55116  -1242315.14616      3103.06416        36.61116
R15                   1223726.48626     -2321.51126        36.06726
R19                   -730729.57414      3414.47314        24.90914
R17  21612668.76115   1506628.57015     -3549.77615        34.60515
R105  23419356.91727    614218.99027     -1499.42327        42.73227
J02  38994669.35225   -164507.57725       305.62325        35.17725  38994680.74425   -139535.49225       228.08825        35.39025
J04  37682565.60326    223356.45026      -432.16826        38.15726  37682575.19626    186902.42026      -323.18126        37.10726
J02                     33112.64513      -212.98013        18.93613                     46081.38411      -156.10711         7.00011
C01                         0.08424       -89.75624        25.73324
C03                         3.08121       -85.85421         7.00021
C04                         0.07724       -81.95124        28.47124
C05                         0.12121      -128.78021         7.00021
C06  36666942.80415    709538.36115     -1338.09515        29.60915
C07  36348883.09226   4086442.92326         3.30726        36.20626
C09  36489727.08826   1764946.36026      -783.21326        35.84526
C10  37325943.58726    -56936.61326        92.84726        35.98526
C16  36983087.74115    773433.84315     -1461.16715        32.19015
C22                    823706.71211     -2033.17611         7.00211
C27  22183166.31425    566338.89425     -1183.11425        35.44325
C28  25766798.41714    898826.83214     -3140.98114        26.33114
C29                   -978721.32011      3245.24411        12.33311
C36  23039667.37027  -1055860.22727      1857.32327        42.39427
C37  25598871.77025   1474422.99425     -2758.83325        31.26225
E03                       392.50626      -534.63426        39.03426                                                                
E05                        19.81521     -2489.75421         9.04021                                                                
E10  24823325.17016     -1190.78316      1974.04016        36.85416                    -26849.67915      1492.37415        29.66515
E24  23957466.99126    157390.29526      -361.82726        37.21426  23957475.68525   1003715.32025      -273.90525        32.21925
E33  26927177.50325     16809.56725     -1954.44625        34.06025  26927185.89724   -295738.14624     -1478.01524        28.57224
> 2022 11 18 12 01 38.0003705  0 38                      
G04                   1005695.63912     -3146.53812        14.86012                                                                
G07  22447840.18417  -1560196.43617      2727.16117        41.87017                                                                
G08  20207687.20916   -392826.41516       540.66716        40.12816  20207690.80715   -350402.95015       406.49915        34.94015
G09  22986837.34413    950498.58113     -1861.42413        21.51013                    797796.36711     -1386.38411         9.55911
G16  21868270.01215    852345.63215     -2114.95715        34.34215                                                                
G18                      2741.03722     -2806.82722        15.07422                                                                
G21  22727811.86316  -1050578.48316      3311.72516        39.70316                                                                
G26  23799647.84715    853087.42015     -2714.26915        31.46315  23799654.74215    635500.09715     -2028.48015        31.55315
G27  20367235.25617    918020.51417     -1800.71617        41.88717  20367240.35316    774728.42616     -1341.17416        37.07916
R96                       128.38421     -3395.69921         7.00021
R09  22332473.15116  -1245414.12016      3102.43416        39.73316
R15                   1226046.01216     -2325.84316        36.27416
R19                   -734140.85913      3407.91413        21.96913
R17  21613332.50116   1510182.89616     -3552.97616        37.12216
R105  23419638.72116    615723.90716     -1500.89816        39.67016
J02  38994609.09415   -164808.83615       303.77215        34.80015  38994624.68315   -139760.82315       226.62315        33.95715
J04  37682648.34515    223791.60215      -437.37915        33.51015  37682658.53815    187227.15815      -324.03815        34.39415
J02                     33322.77612      -212.68212        13.86312                     46227.87211      -156.10711         7.00011
C01                         0.08625       -89.75625        31.44225
C03                         3.08321       -85.85421         7.00021
C04                         0.07925       -81.95125        32.27625
C05                         0.12421      -128.78021         7.00021
C06  36667200.02614    710876.05014     -1338.05914        27.86514
C07  36348889.38815   4086438.95215         2.22415        34.33915
C09  36489879.08216   1765735.23716      -786.98716        36.17316
C10  37325925.30015    -57026.15915        89.48015        34.77415
C16  36983373.74315    774896.72015     -1463.20815        31.35615
C22                    825741.85611     -2035.12711         7.00011
C27  22183396.55416    567523.51916     -1187.81916        36.62016
C28  25767372.81914    901966.67214     -3143.22714        27.76214
C29                   -981967.65512      3244.73812        16.52812
C36  23039308.81816  -1057717.75416      1856.29716        41.21716
C37  25599403.00215   1477182.79415     -2763.04215        34.92515
E03                       392.05025      -534.63425        35.48625                                                                
E05                        19.87422     -2489.75422        15.84022                                                                
E10  24822955.22615     -3163.48715      1969.69815        34.96015                    -28342.73815      1492.37415        32.46215
E24  23957534.14416    157753.65716      -364.12216        38.77916  23957544.63715   1003990.48315      -279.17315        35.23515
E33  26927552.84315     18765.82915     -1957.84015        33.18715  26927559.43915   -294260.93015     -1470.80215        31.95715
> 2022 11 18 12 01 39.0003705  0 38                      
G04                   1008849.05512     -3144.82812        14.74112                                                                
G07  22447288.56517  -1562925.34817      2728.66617        43.47717                                                                
G08  20207554.10116   -393370.14616       544.58516        38.85616  20207556.20015   -350809.23515       412.23815        33.77215
G09  22987163.81813    952363.34713     -1861.33413        23.23513                    799174.10611     -1375.61811         7.00011
G16  21868642.65416    854457.99216     -2111.45216        38.64816                                                                
G18                      2740.95621     -2808.77821         7.00021                                                                
G21  22727158.61516  -1053887.14016      3311.33616        35.77416                                                                
G26  23800135.30915    855798.52615     -2711.51315        33.92015  23800140.70515    637535.16815     -2025.56115        32.99115
G27  20367545.24216    919819.02816     -1799.09016        39.30416  20367554.23616    776070.35016     -1343.45616        39.14416
R96                       128.33021     -3395.69921         7.00021
R09  22331860.67516  -1248523.00516      3105.24116        37.59916
R15                   1228379.42216     -2328.00816        36.72916
R19                   -737545.99613      3408.59913        22.25913
R17  21613954.57116   1513731.03116     -3550.29716        37.68516
R105  23419889.34816    617225.61716     -1498.23916        39.83916
J02  38994529.64915   -165113.46915       304.84915        34.85515  38994536.84415   -139987.19915       227.23715        33.47115
J04  37682705.30615    224229.10515      -439.03215        33.42315  37682712.20115    187556.31915      -325.82415        32.40415
J02                     33529.33812      -213.42912        13.00312                     46374.22511      -156.12611         7.00011
C01                         0.09225       -93.65825        31.71525
C03                         3.08721       -87.80521         7.00021
C04                         0.08525       -85.85425        33.38225
C05                         0.12721      -128.78021         7.00021
C06  36667423.67113    712207.62513     -1335.39013        23.43213
C07  36348857.01015   4086434.20715         4.66615        34.39915
C09  36490001.39815   1766517.05415      -785.73615        32.37415
C10  37325877.63315    -57120.01715        92.81115        32.31915
C16  36983627.96714    776358.05314     -1462.21814        26.74514
C22                    827776.98311     -2035.12711         7.00011
C27  22183589.92016    568709.31616     -1186.21316        37.21316
C28  25767945.42315    905110.35615     -3145.48415        30.18515
C29                   -985211.14811      3243.06911        11.80811
C36  23038922.68616  -1059575.76216      1857.53616        40.97316
C37  25599907.55315   1479942.97515     -2762.33315        34.73215
E03                       392.06425      -535.60925        33.15625                                                                
E05                        19.93621     -2490.72921         7.00021                                                                
E10  24822549.00715     -5133.24315      1966.92815        33.81315  24822553.20415    -29825.64715      1485.49415        32.33715
E24  23957576.71516    158112.98016      -366.78516        37.03216  23957582.71116   1004262.89516      -275.17216        36.78816
E33  26927897.60415     20737.16815     -1960.36815        30.93915  26927902.70115   -292796.49615     -1481.63215        33.04915
> 2022 11 18 12 01 40.0003704  0 37                      
G04                   1011996.70412     -3147.50312        13.98912                                                                
G07  22446737.24717  -1565656.34417      2727.14317        42.06017                                                                
G08  20207417.69616   -393912.02916       540.83916        38.39116  20207425.19115   -351214.08815       413.76615        35.07815
G09  22987495.98813    954226.50913     -1859.79713        20.97613                    800547.38411     -1376.43811         7.00011
G16  21869015.59616    856568.27116     -2111.48116        37.92416                                                                
G18                      2741.03621     -2809.75321         7.00021                                                                
G21  22726500.57115  -1057191.06215      3308.35615        32.62215                                                                
G26  23800622.17215    858516.73915     -2713.93715        33.08515  23800630.56615    639561.62915     -2026.69115        32.12415
G27  20367857.32616    921618.38716     -1799.45116        39.71716  20367865.42016    777413.45016     -1344.10416        38.92116
R09  22331256.29316  -1251633.00316      3104.81716        40.72816
R15                   1230705.25616     -2323.02116        36.88516
R19                   -740950.20113      3411.06113        21.19013
R17  21614599.42416   1517280.74016     -3552.43016        36.82516
R105  23420136.37716    618726.51616     -1503.27116        38.23416
J02  38994442.40916   -165416.63816       302.32916        35.64816  38994447.50615   -140214.96015       226.14515        33.63415
J04  37682756.87015    224669.87515      -434.73615        32.13615  37682764.66515    187878.72615      -322.86615        32.47015
J02                     33756.92412      -219.49512        13.17412                     46532.01311      -146.35111         7.00011
C01                         0.08925       -93.65825        32.65625
C03                         3.08321       -87.80521         7.00021
C04                         0.08325       -87.80525        31.06325
C05                         0.12021      -126.82921         7.00021
C06                    713536.74013     -1335.71813        19.76513
C07  36348827.63015   4086427.26415         1.59115        33.00415
C09  36490121.61415   1767298.10915      -784.06815        30.00415
C10  37325827.26715    -57215.89115        94.60615        31.28315
C16  36983888.78714    777820.80614     -1461.89414        24.85114
C22                    829810.56611     -2035.12711         7.00011
C27  22183788.68316    569895.04816     -1185.70816        37.35616
C28  25768523.42215    908259.29215     -3144.34415        29.71015
C29                   -988464.11012      3247.59012        17.26212
C36  23038533.85516  -1061432.69416      1855.58416        40.08216
C37  25600408.50615   1482706.62015     -2760.64615        34.00715
E03                       392.04025      -533.65825        33.01625                                                                
E05                        19.83522     -2489.75422        16.16022                                                                
E10  24822143.38815     -7116.29515      1966.89315        32.16415  24822148.18415    -31302.21915      1489.33115        31.05615
E24  23957614.48916    158459.82416      -366.35816        37.60216  23957621.38416   1004528.92016      -274.40316        36.52216
E33  26928242.66615     22700.87215     -1958.28415        30.97315  26928244.16425   -291316.47625     -1480.01925        31.71525
> 2022 11 18 12 01 41.0003703  0 38                      
G04                   1015143.57612     -3150.39212        13.73912                                                                
G07  22446190.42616  -1568384.46716      2728.96916        41.45316                                                                
G08  20207284.28816   -394459.21416       541.16416        37.80016  20207290.28415   -351620.55015       404.31615        35.17615
G09  22987811.07013    956092.65713     -1858.11613        20.72613                    801918.69811     -1375.06611         7.00011
G16  21869390.93616    858679.62316     -2111.44116        38.86016                                                                
G18                      2741.08823     -2808.77823        21.08323                                                                
G21  22725841.02815  -1060499.47115      3307.30315        30.91515                                                                
G26  23801107.53615    861232.57915     -2718.89915        34.63515  23801115.03115    641592.00115     -2023.24515        31.34115
G27  20368169.71016    923417.39016     -1799.23116        38.85716  20368177.50416    778756.92716     -1342.17616        38.30416
G30  25574579.88715     -4920.03315      3421.46015        31.76915                                                                
R09  22330631.82517  -1254737.86617      3105.23617        42.70017
R15                   1233025.96616     -2328.02316        36.49316
R19                   -744352.83513      3404.99813        20.52913
R17  21615228.68916   1520836.89216     -3553.92516        36.84816
R105  23420391.80016    620225.06616     -1501.15316        37.90516
J02  38994358.16816   -165718.86716       303.77616        35.86016  38994359.66715   -140441.69415       228.38315        34.77215
J04  37682813.53115    225106.66615      -436.47215        34.08315  37682818.02815    188197.59815      -329.81815        31.71815
J02                     33977.50212      -210.87212        12.85112                     46688.13711      -147.57111         7.00011
C01                         0.08925       -91.70725        30.90925
C03                         3.08521       -87.80521         7.00021
C04                         0.08325       -85.85425        32.34325
C05                         0.12521      -128.78021         7.00021
C06                    714864.15012     -1335.84012        16.28112
C07  36348794.35315   4086425.16915         1.27915        33.29115
C09  36490238.83315   1768084.98115      -782.86715        33.08515
C10  37325782.59815    -57305.92715        93.46415        31.37115
C16  36984139.71313    779280.02513     -1463.15613        21.82913
C22                    831847.20211     -2033.17611         7.00011
C27  22183988.94416    571081.92216     -1188.43516        38.32716
C28  25769104.72014    911403.49414     -3143.98014        28.61514
C29                   -991695.14611      3241.45711        12.21111
C36  23038148.02216  -1063291.01016      1855.52216        41.35416
C37  25600904.96215   1485471.22115     -2760.93415        35.06915
E03                       392.05825      -536.58525        30.04625                                                                
E05                        19.90122     -2491.70522        15.31322                                                                
E10  24821734.17115     -9077.76315      1967.06915        33.36215  24821747.06215    -32779.05215      1487.17115        31.81415
E24  23957654.66116    158823.83416      -362.67916        36.47516  23957660.95616   1004802.71516      -275.90916        35.89016
E33  26928593.72215     24653.60615     -1956.16915        30.68615  26928588.32614   -289838.17914     -1478.18814        29.21414
> 2022 11 18 12 01 42.0003703  0 38                      
G04                   1018295.51912     -3144.57112        13.13812                                                                
G07  22445670.88517  -1571115.05617      2728.21117        42.71117                                                                
G08  20207183.55816   -394999.20316       539.98216        38.00916  20207189.55415   -352024.81515       403.67615        34.94115
G09  22988168.42213    957948.82013     -1861.44713        21.96713                    803294.34111     -1383.25911         7.00011
G16  21869789.66016    860788.48016     -2115.16516        37.67016                                                                
G18                      2740.99321     -2809.75321        12.12821                                                                
G21  22725209.06515  -1063809.01015      3304.46415        31.56615                                                                
G26  23801621.38015    863947.14615     -2716.09415        34.96215  23801633.97215    643621.67515     -2028.16915        32.26815
G27  20368514.77116    925216.95316     -1802.86616        39.26416  20368521.36616    780101.41716     -1343.34516        38.35216
R96                       128.38421     -3395.69921         7.00021
R09  22330057.42317  -1257845.10217      3105.23617        41.83917
R15                   1235359.32216     -2331.38416        37.09316
R19                   -747754.03414      3397.66114        25.15014
R17  21615896.32616   1524394.13116     -3555.96616        36.87116
R105  23420676.90316    621730.81416     -1500.06616        36.57716
J02  38994292.81326   -166020.33826       301.47126        36.45826  38994304.20515   -140668.38615       223.37815        34.24915
J04  37682895.67415    225545.53415      -437.23115        33.13015  37682901.37015    188530.26015      -324.01215        31.65015
J02                     34187.18311      -218.42211        12.01411                     46842.98411      -156.10711         9.08211
C01                         0.09321       -93.65821         7.00021
C03                         3.08721       -87.80521         7.00021
C04                         0.08521       -85.85421         7.00021
C05                         0.12821      -128.78021         7.00021
C06                    716197.37912     -1337.64412        16.67612
C07  36348794.65315   4086424.00215         2.34315        33.29315
C09  36490389.92915   1768873.63515      -784.48115        31.17715
C10  37325764.61115    -57403.75315        94.61215        31.00015
C16                    780743.68113     -1462.25913        18.30913
C22                    833882.77111     -2037.07811         7.00011
C27  22184217.08615    572270.06515     -1187.89515        35.48915
C28  25769705.20414    914550.96814     -3147.78914        29.26014
C29                   -994939.48412      3247.92612        12.91912
C36  23037792.46816  -1065149.61916      1858.70916        41.04216
C37  25601441.59116   1488242.59316     -2764.03816        36.17716
E03                       392.06925      -535.60925        35.42325                                                                
E05                        19.95622     -2490.72922        12.70122                                                                
E10  24821362.72815    -11042.87115      1967.62615        33.26315  24821371.42215    -41670.40615      1486.12115        31.20515
E24  23957719.71616    159194.88316      -360.64316        35.68416  23957732.00716   1005077.94116      -277.31416        35.97916
E33  26928959.76915     26624.15715     -1954.58915        30.87015  26928962.16715   -288356.13615     -1486.53815        32.50015
> 2022 11 18 12 01 43.0003702  0 38                      
G04                   1021446.54512     -3148.97312        12.72012                                                                
G07  22445122.26517  -1573845.00417      2724.67517        42.62417                                                                
G08  20207049.85016   -395540.48616       538.97616        37.25516  20207054.64715   -352425.54015       404.58615        35.42415
G09                    959812.53613     -1861.74413        19.98613                    804671.84111     -1375.61811         7.00011
G16  21870161.40216    862902.69416     -2114.88616        38.30116                                                                
G18                      2741.05821     -2809.75321         7.00021                                                                
G21  22724550.42115  -1067112.43315      3302.66915        33.82315                                                                
G26  23802111.54115    866666.21815     -2715.19515        33.02915  23802121.73415    645656.27215     -2034.16115        31.60915
G27  20368827.45416    927017.28116     -1800.06016        40.36616  20368834.34916    781446.12716     -1346.55416        39.69516
R96                       128.31221     -3394.72421         7.00021
R09  22329443.44817  -1260943.52517      3105.23617        41.69917
R15                   1237686.27516     -2331.40516        39.08316
R19                   -751156.90113      3401.62413        22.55213
R17  21616530.98716   1527948.49116     -3555.58716        38.35816
R105  23420919.43516    623235.35916     -1501.50916        38.11216
J02  38994206.17316   -166322.45116       303.30416        35.72816  38994214.86715   -140894.59615       224.61215        33.73415
J04  37682945.74016    225985.88916      -436.34216        36.73916  37682952.93515    188857.96515      -325.22915        31.12715
J02                     34400.92011      -222.61311        12.07211                     46999.00611      -150.10511         7.00011
C01                         0.09123       -95.61023        18.46823
C03                         3.08622       -89.75622        17.04322
C04                         0.08621       -89.75621         7.00021
C05                         0.12121      -126.82921         7.00021
C06                    717526.87513     -1336.64113        17.70813
C07  36348763.17515   4086419.81715         4.85315        32.69015
C09  36490510.44515   1769660.35815      -785.42215        30.54615
C10  37325714.84515    -57503.30815        94.37715        31.46715
C16                    782205.96513     -1463.16913        19.22513
C22                    835915.55711     -2035.12711         7.00011
C27  22184416.14816    573459.43816     -1190.05016        37.40216
C28  25770285.60314    917694.64714     -3148.58114        29.46214
C29                   -998188.12711      3241.31611        11.62511
C36  23037402.13816  -1067003.21016      1858.75716        40.56916
C37  25601938.34715   1491010.63915     -2766.23415        35.00515
E03                       392.04426      -533.65826        36.22126                                                                
E05                        19.85822     -2490.72922        14.97322                                                                
E10  24820958.90815    -13001.64415      1968.55915        33.60715  24820965.80315    -43142.28115      1489.09715        32.62415
E24  23957763.48516    159566.34716      -363.40916        38.22816  23957769.78116   1005353.66716      -276.66216        37.06716
E33  26929303.03115     28581.43415     -1954.83715        30.16115  26929305.13015   -286871.28415     -1488.23415        30.72715
> 2022 11 18 12 01 44.0003701  0 38                      
G04                   1024597.45912     -3144.85712        13.40512                                                                
G07  22444575.14417  -1576572.52017      2728.96917        42.38217                                                                
G08  20206916.44316   -396073.14016       539.13016        37.45316  20206922.43915   -352829.76315       405.39115        34.65315
G09  22988821.07013    961672.54413     -1867.66413        20.11913                    806055.05111     -1373.00811         7.00011
G16  21870533.74516    865010.63616     -2111.52716        37.74716                                                                
G18                      2741.16821     -2812.68021         7.00021                                                                
G21  22723891.47716  -1070415.13416      3303.83316        37.72716                                                                
G26  23802598.40415    869376.35415     -2717.41215        34.72015  23802606.19915    647686.90915     -2029.25215        31.13315
G27  20369137.73916    928817.11216     -1800.81416        39.70916  20369145.53416    782790.79716     -1344.79016        38.98416
R96                       128.49922     -3396.18622        16.01822
R09  22328839.06617  -1264042.52117      3107.32917        41.78217
R15                   1240019.32716     -2329.02216        36.78116
R19                   -754555.55313      3399.14113        18.27313
R17  21617157.85316   1531502.76616     -3556.52316        38.54616
R105  23421174.55816    624733.13516     -1500.54016        36.98216
J02  38994115.63516   -166624.97216       303.91616        36.13516  38994127.02816   -141121.32916       227.29916        35.51616
J04  37682998.20316    226424.95616      -436.62816        35.50816  37683005.99815    189185.26615      -329.39515        32.49515
J02                     34614.07511      -220.54111        12.13711                     47153.99811      -156.10711         7.00011
C01                         0.09623       -97.56123        23.44423
C03                         3.08821       -89.75621         7.00021
C04                         0.08821       -89.75621         7.00021
C05                         0.12421      -126.82921         7.00021
C06                    718863.53112     -1342.81212        17.16612
C07  36348732.29615   4086416.70915         5.62615        32.68515
C09  36490634.85915   1770445.53315      -784.77115        30.78415
C10  37325671.97515    -57587.54815        91.27915        31.21715
C16                    783664.46112     -1462.71512        16.72312
C22                    837950.25811     -2033.17611         7.00011
C27  22184612.81216    574646.53416     -1188.92116        38.95816
C28  25770856.10814    920841.99914     -3146.54114        27.99714
C29                  -1001431.37912      3237.21712        12.96012
C36  23037022.90116  -1068864.10616      1857.74316        41.22116
C37  25602441.39915   1493776.33215     -2769.35015        33.53715
E03                       392.06226      -536.58526        39.09226                                                                
E05                        19.92123     -2491.70523        17.98523                                                                
E10  24820554.18815    -14966.70015      1967.86415        32.33215  24820563.48115    -44628.53615      1483.89615        33.33815
E24  23957801.55916    159928.78516      -366.19316        37.43916  23957809.35416   1005629.44416      -274.79416        36.68216
E33  26929637.90015     30552.26915     -1954.03215        29.76315  26929647.19314   -285389.26314     -1486.47214        29.20514
> 2022 11 18 12 01 45.0003699  0 38                      
G04                   1027745.16412     -3153.91712        13.79612                                                                
G07  22444025.02516  -1579300.06516      2725.99716        41.25416                                                                
G08  20206784.53416   -396612.82216       540.68316        35.75516  20206789.93015   -353233.28615       402.71915        35.38215
G09  22989145.14613    963533.40713     -1868.61613        20.39713                    807425.15011     -1375.40911         7.53811
G16  21870910.58416    867121.02216     -2114.31116        36.96916                                                                
G18                      2741.04422     -2811.70522        16.78822                                                                
G21  22723232.53315  -1073718.72315      3305.43115        34.45515                                                                
G26  23803086.76616    872087.37616     -2717.09616        36.54016  23803091.86215    649713.60915     -2027.16115        30.99415
G27  20369450.72316    930622.25616     -1801.43016        40.38916  20369457.91816    784137.53816     -1346.05516        38.68316
R96                       128.44621     -3396.18621         7.00021
R09  22328232.58616  -1267149.45116      3103.44116        40.84316
R15                   1242344.40116     -2330.19116        36.74616
R19                   -757950.03812      3402.73812        14.79712
R17  21617798.80916   1535062.94516     -3557.06016        37.80416
R105  23421425.18516    626235.58716     -1502.09516        36.42616
J02  38994031.09415   -166928.32415       301.80615        35.49815  38994039.18815   -141342.77215       228.11115        35.16315
J04  37683054.26415    226868.62715      -439.21315        35.41815  37683060.26015    189511.76115      -328.26815        34.15215
J02                     34837.39211      -214.92711        11.32711                     47311.39311      -155.59311         7.00011
C01                         0.09225       -97.56125        29.83525
C03                         3.08621       -91.70721         7.00021
C04                         0.08624       -91.70724        24.76624
C05                         0.12121      -128.78021         7.00021
C06                    720205.99812     -1346.85612        16.33112
C07  36348701.41815   4086416.35115         3.78115        32.34615
C09  36490755.67615   1771235.99615      -786.92815        30.29515
C10  37325620.41115    -57672.52615        93.95315        31.98415
C16                    785125.99713     -1461.09813        17.91313
C22                    839985.79311     -2035.12711         7.00011
C27  22184810.37516    575833.67016     -1189.60516        38.62916
C28  25771431.70914    923989.02814     -3145.54114        27.35814
C29                  -1004675.11211      3242.28911         9.73011
C36  23036633.47116  -1070718.87216      1854.91416        40.30516
C37  25602942.35215   1496537.11815     -2767.89315        33.26315
E03                       392.03926      -535.60926        36.39626                                                                
E05                        19.82722     -2492.68122        17.44822                                                                
E10  24820145.27115    -16916.34515      1967.85815        34.84915  24820157.56215    -46104.51615      1486.15915        32.56415
E24  23957843.83016    160279.27916      -367.18216        37.96316  23957848.62716   1005905.05816      -277.32916        36.71516
E33  26929984.16015     32516.04915     -1956.31315        32.14915  26929989.25614   -283912.12214     -1479.84514        28.42314
> 2022 11 18 12 01 46.0003699  0 38                      
G04                   1030902.38112     -3149.22612        13.21712                                                                
G07  22443509.98117  -1582023.84317      2725.99717        42.56717                                                                
G08  20206685.60316   -397149.04116       538.95316        37.15916  20206689.80016   -353644.70916       404.80516        36.18616
G09                    965404.85813     -1869.96313        19.50413                    808801.50111     -1368.37711        10.18011
G16  21871309.00816    869236.04316     -2116.33616        38.53816                                                                
G18                      2741.12422     -2812.68022        13.51022                                                                
G21  22722599.97115  -1077025.38215      3301.65415        29.80015                                                                
G26  23803602.70916    874802.54316     -2715.69616        37.45416  23803611.10315    651741.06915     -2029.31315        34.75415
G27  20369793.68516    932427.27816     -1802.23816        39.35416  20369801.18016    785483.27516     -1347.00216        39.08616
R96                       128.41121     -3397.16121         7.00021
R09  22327647.39116  -1270250.97016      3102.47916        41.09316
R15                   1244670.38916     -2328.80116        38.67516
R19                   -761349.04911      3401.75011         9.88011
R17  21618462.85016   1538621.77716     -3556.21616        36.65216
R105  23421707.88916    627734.47316     -1503.54116        36.70016
J02  38993973.53416   -167231.30716       303.14216        35.67216  38993983.72715   -141567.15115       223.85915        34.40715
J04  37683137.00715    227314.74715      -436.55415        33.44715  37683143.90225    189840.02825      -328.26725        32.74725
J02                     35053.84811      -220.88211        10.46711                     47467.67311      -169.56011         7.00011
C01                         0.09225       -95.61025        34.98725
C03                         3.08621       -89.75621         7.00021
C04                         0.08625       -89.75625        33.00925
C05                         0.12421      -128.78021         7.00021
C06                    721554.51312     -1342.42412        14.29012
C07  36348703.21615   4086408.83815         2.52115        34.56915
C09  36490901.97415   1772023.26115      -784.54615        32.69315
C10  37325600.62415    -57765.92815        90.66415        33.19815
C16                    786587.73012     -1463.98812        17.00312
C22                    842022.46311     -2035.12711         7.00011
C27  22185039.11716    577021.35016     -1189.36916        39.38316
C28  25772040.58814    927137.63314     -3147.20114        29.26414
C29                  -1007916.43911      3242.93611         8.51711
C36  23036276.41817  -1072573.93617      1857.74317        42.25817
C37  25603470.28615   1499300.23015     -2767.06215        33.58615
E03                       392.05625      -537.56025        30.17325                                                                
E05                        19.88621     -2492.68121         7.00021                                                                
E10  24819771.43015    -18884.85815      1966.70615        33.16215  24819784.92015    -47572.78315      1488.75615        31.60115
E24  23957910.08416    160642.45816      -365.33516        37.60816  23957917.57916   1006181.24316      -277.24616        35.97116
E33  26930356.20215     34484.70615     -1959.37015        30.57315  26930363.69714   -282440.78014     -1483.78214        28.52014
> 2022 11 18 12 01 47.0003699  0 38                      
G04                   1034052.19012     -3146.07912        12.67612                                                                
G07  22442956.26516  -1584755.30116      2724.63216        40.68416                                                                
G08  20206548.59716   -397683.83116       536.17516        37.54516  20206554.59316   -354047.81016       400.21916        35.87816
G09                    967276.53412     -1862.27412        17.30912                    810174.41911     -1375.54211         7.00011
G16  21871681.35016    871348.95716     -2111.46216        38.44016                                                                
G18                      2741.00021     -2811.70521         7.00021                                                                
G21  22721963.21214  -1080329.67814      3307.33414        26.56314                                                                
G26  23804087.17316    877519.62916     -2711.59816        36.29916  23804097.36615    653772.15315     -2024.60015        34.06215
G27  20370108.76716    934235.27516     -1801.57416        40.69416  20370114.16316    786828.22816     -1345.53516        38.70716
R96                       128.33021     -3395.69921         7.00021
R09  22327037.31416  -1273352.57916      3105.22116        41.21016
R15                   1246999.21716     -2329.85116        38.29716
R19                   -764754.15311      3404.50711        10.05811
R17  21619089.71616   1542174.98116     -3554.21716        37.56116
R105  23421953.41916    629238.89716     -1505.67216        37.86616
J02  38993885.99415   -167530.23415       302.39015        34.78415  38993894.68815   -141795.13015       230.67615        35.46215
J04  37683181.67615    227751.22015      -433.74315        33.82415  37683196.06615    190170.38515      -324.32815        32.51115
J02                     35277.13811      -224.92211         9.78111                     47623.20411      -170.79911         7.00011
C01                         0.09225       -93.65825        31.36425
C03                         3.08721       -87.80521         7.00021
C04                         0.08725       -87.80525        33.72625
C05                         0.12521      -126.82921         7.00021
C06                    722897.64712     -1341.04012        16.37112
C07  36348672.93715   4086401.11915         3.03315        33.40715
C09  36491024.29015   1772813.38515      -786.20315        31.59515
C10  37325555.65615    -57859.74715        94.28415        32.50415
C16                    788060.68812     -1471.83912        16.45512
C22                    844058.01511     -2037.07811         7.00011
C27  22185241.77716    578211.42016     -1188.73816        39.21516
C28  25772616.48914    930284.19414     -3148.67914        26.36314
C29                  -1011161.95411      3237.93511         7.00011
C36  23035889.38616  -1074431.46616      1853.54816        39.16416
C37  25603971.24015   1502073.47915     -2767.06215        33.91715
E03                       392.06624      -536.58524        26.76824                                                                
E05                        19.93622     -2490.72922        12.61422                                                                
E10  24819374.20515    -20836.03215      1965.87815        34.02415  24819379.90115    -49051.59715      1492.77915        31.32515
E24  23957949.65716    160988.80716      -362.88116        37.39216  23957958.95016   1006456.59716      -275.85016        37.15016
E33  26930708.15914     36438.51214     -1962.60014        29.44514  26930706.36014   -280972.19214     -1484.25114        28.20214
> 2022 11 18 12 01 48.0003698  0 38                      
G04                   1037205.34812     -3147.24312        13.24012                                                                
G07  22442407.04517  -1587483.51417      2742.10017        41.92417                                                                
G08  20206418.18816   -398214.83116       539.00916        38.65816  20206422.98416   -354449.54016       400.19116        35.62716
G09                    969139.64513     -1862.55113        18.72413                    811550.04611     -1378.64811         7.00011
G16  21872058.18916    873463.89116     -2112.68416        39.09916                                                                
G18                      2741.06621     -2811.70521         7.00021                                                                
G21  22721301.87014  -1083639.55714      3313.80414        23.68014                                                                
G26  23804574.03616    880242.35216     -2717.94816        38.78016  23804584.22916    655806.10216     -2028.62616        36.48516
G27  20370422.65016    936038.44216     -1801.24716        40.49116  20370429.24516    788173.23816     -1343.43916        39.58816
R96                       128.52722     -3397.64822        14.10522
R09  22326420.34117  -1276463.10617      3103.92517        41.64517
R15                   1249333.03916     -2332.05016        38.71716
R19                   -768159.90411      3408.35211         9.58311
R17  21619726.77516   1545734.65516     -3556.29016        38.04316
R105  23422202.84616    630747.85216     -1504.20816        37.74416
J02  38993797.25615   -167833.78715       303.84115        34.85415  38993805.35015   -142022.41115       225.01415        34.12915
J04  37683244.03315    228193.71715      -436.98515        34.37115  37683249.12915    190506.50815      -333.76715        32.71115
J02                     35495.44211      -213.49111        10.32511                     47786.48911      -157.87911         7.00011
C01                         0.08925       -93.65825        31.87725
C03                         3.08321       -87.80521         7.00021
C04                         0.08125       -85.85425        30.99125
C05                         0.12221      -128.78021         7.00021
C06                    724238.83612     -1345.22912        14.20512
C07  36348642.65815   4086391.64715         5.51915        32.43415
C09  36491146.30515   1773598.56015      -787.95715        30.74015
C10  37325509.18815    -57951.20915        94.83015        31.77415
C16                    789534.56013     -1474.01213        17.56113
C22                    846094.66811     -2035.12711         7.00011
C27  22185436.94216    579401.67816     -1189.22416        38.80716
C28  25773189.99215    933428.46615     -3146.82915        31.25415
C29                  -1014403.77911      3234.89511         7.00011
C36  23035502.95316  -1076282.29316      1855.41816        40.56916
C37  25604474.29115   1504843.05715     -2768.09215        34.53115
E03                       392.05125      -539.51225        33.23725                                                                
E05                        19.84621     -2492.68121         7.00021                                                                
E10  24818966.18715    -22809.77915      1966.95515        33.61115  24818976.08015    -50529.41615      1482.68515        31.36915
E24  23957992.82716    161355.45616      -361.57516        38.13716  23957996.42416   1006731.61916      -274.92516        36.84416
E33  26931061.91415     38385.87215     -1965.61815        32.21515                   -279507.65714     -1482.85114        27.97814
> 2022 11 18 12 01 49.0003698  0 38                      
G04                   1040353.90312     -3154.50712        13.23012                                                                
G07  22441887.80417  -1590215.09817      2726.81217        41.99617                                                                
G08  20206314.46016   -398752.78616       537.56016        37.95616  20206320.45516   -354850.56016       403.33716        36.36516
G09                    970997.17613     -1860.55313        19.27813                    812926.21111     -1375.61811         9.09511
G16  21872457.51316    875579.35216     -2116.30716        37.82816                                                                
G18                      2741.13221     -2811.70521        12.27421                                                                
G21  22720672.30613  -1086954.47613      3300.12813        20.81813                                                                
G26  23805094.77616    882962.27616     -2719.10516        38.85416  23805100.77216    657840.90416     -2030.38816        36.13816
G27  20370763.81416    937837.99816     -1804.58716        41.37016  20370772.50816    789520.00516     -1347.21416        39.63016
R96                       128.43721     -3395.69921         7.00021
R09  22325839.94316  -1279566.00316      3106.66616        40.67616
R15                   1251659.43216     -2331.13716        39.02916
R19                   -771599.13611      3404.94811         8.72311
R17  21620385.41916   1549291.89516     -3560.28716        36.00316
R105  23422486.45016    632256.36016     -1503.19416        38.13416
J02  38993742.39416   -168136.68516       304.70116        37.33616  38993747.79015   -142250.44415       232.30815        33.56715
J04  37683323.77815    228634.80915      -436.01215        34.81315  37683333.37115    190841.92115      -324.64115        32.35515
J02                     35709.73111      -208.25711        10.90711                     47939.25711      -131.92711         7.00011
C01                         0.09322       -95.61022        16.31022
C03                         3.08721       -89.75621         7.00021
C04                         0.08521       -87.80521         7.00021
C05                         0.12321      -126.82921         7.00021
C06                    725574.89212     -1344.97612        15.57012
C07  36348639.96015   4086385.65915         3.71915        34.63015
C09  36491298.30015   1774383.37915      -787.39915        31.92415
C10  37325488.80215    -58056.04315        96.35815        32.95615
C16                    791005.37912     -1463.12412        17.18712
C22                    848130.22011     -2037.07811         7.00011
C27  22185667.18216    580596.86016     -1192.45816        37.54516
C28  25773794.37315    936572.36815     -3145.26315        30.66315
C29                  -1017645.71411      3247.40311         7.00011
C36  23035144.10216  -1078139.00516      1856.84616        40.13416
C37  25605006.42315   1507606.71415     -2774.47415        34.42215
E03                       392.05826      -536.58526        39.70126                                                                
E05                        19.90123     -2491.70523        20.53023                                                                
E10  24818591.44715    -24793.51615      1967.34915        34.44715  24818602.53915    -52002.20415      1488.70315        32.14415
E24  23958062.97816    161721.83916      -364.96416        39.02016  23958067.17516   1007008.08416      -275.02016        37.07816
E33  26931421.66515     40336.07815     -1967.67615        31.20715  26931424.66314   -278028.58614     -1480.73114        28.57714
> 2022 11 18 12 01 50.0003697  0 38                      
G04                   1043503.99812     -3151.34112        13.08212                                                                
G07  22441340.08416  -1592939.02416      2728.84716        41.36516                                                                
G08  20206184.35016   -399291.38416       538.69316        37.07316  20206189.14616   -355243.96816       403.09116        36.50916
G09                    972857.80012     -1858.10112        17.27012                    814301.22011     -1375.50411         7.00011
G16  21872832.55316    877693.71916     -2114.22016        37.46616                                                                
G18                      2741.08022     -2815.60722        16.76322                                                                
G21  22720015.46113  -1090256.22913      3303.80113        23.20913                                                                
G26  23805579.54016    885671.19116     -2717.47416        38.11416  23805587.33516    659867.69416     -2031.68616        36.13816
G27  20371080.09516    939641.88816     -1802.35116        40.39016  20371083.99216    790866.50716     -1347.29816        38.35716
R96                       128.33721     -3393.26221         7.00021
R09  22325226.86717  -1282673.98017      3108.56617        42.19217
R15                   1253983.16916     -2331.45416        38.21216
R19                   -774999.17811      3405.59511         9.52911
R17  21621031.47116   1552854.68116     -3557.50316        36.52116
R105  23422738.87516    633765.48016     -1502.12216        37.18916
J02  38993653.05616   -168439.23516       305.71016        36.43916  38993660.85015   -142471.17015       228.34515        35.27315
J04  37683376.24116    229070.73216      -434.82716        35.52816  37683387.03415    191170.76115      -328.70015        33.71215
J02                     35928.29411      -222.40811        10.04711                     48087.21011      -142.15911         7.00011
C01                         0.09321       -93.65821         7.00021
C03                         3.08721       -87.80521         7.00021
C04                         0.08723       -87.80523        22.49823
C05                         0.12421      -124.87821         7.00021
C06                    726922.56212     -1339.59312        14.94612
C07  36348608.78215   4086379.55615         9.02715        33.41815
C09  36491415.81915   1775170.60415      -780.03015        31.12015
C10  37325440.23515    -58147.36715        97.82815        31.79915
C16                    792464.16312     -1459.35012        15.78412
C22                    850163.78611     -2035.12711         7.30211
C27  22185867.14416    581790.20616     -1191.13316        39.49716
C28  25774368.77615    939712.26915     -3145.29315        30.71015
C29                  -1020891.05911      3239.47111         7.00011
C36  23034762.16616  -1079998.59916      1857.88016        40.15716
C37  25605507.07615   1510380.48415     -2772.26015        33.55115
E03                       392.07125      -536.58525        35.24125                                                                
E05                        19.95221     -2489.75421         7.06721                                                                
E10  24818191.82316    -26759.02116      1966.94816        36.87616  24818197.81915    -53485.21615      1488.78215        31.96915
E24  23958099.85316    162087.69916      -366.83316        38.42716  23958104.94916   1007282.18516      -274.44116        35.85416
E33  26931770.32314     42286.34714     -1969.06314        29.27014  26931773.32114   -276556.04014     -1486.70214        28.06014
> 2022 11 18 12 01 51.0003696  0 38                      
G04                   1046640.35012     -3152.54012        12.81012                                                                
G07  22440792.06316  -1595663.15616      2727.07916        41.38116                                                                
G08  20206051.24216   -399829.91716       537.45416        39.23716  20206056.33816   -355643.38516       400.22916        37.00116
G09                    974718.85913     -1859.23713        18.77613                    815675.80211     -1376.20911         7.00011
G16  21873203.69616    879804.47216     -2112.37916        38.07816                                                                
G18                      2741.13123     -2814.63123        17.99523                                                                
G21  22719355.91713  -1093561.98713      3308.76913        20.65513                                                                
G26  23806064.60416    888381.78816     -2716.78816        38.01016  23806075.39715    661889.95115     -2031.92215        35.32315
G27  20371390.97916    941444.12716     -1801.13216        39.41916  20371397.57516    792211.24816     -1346.04016        38.07516
R96                       128.22922     -3390.33822        15.29322
R09  22324609.29516  -1285780.08516      3108.12216        40.59916
R15                   1256311.75916     -2332.05016        37.34716
R19                   -778407.37611      3399.11211        10.43211
R17  21621663.73416   1556416.30816     -3555.11216        35.91116
R105  23422992.50016    635276.35616     -1503.11416        37.46216
J02  38993562.51816   -168743.49416       303.20816        35.81616  38993574.51015   -142699.85115       224.40515        34.98215
J04  37683432.60216    229504.53116      -437.10916        37.14016  37683439.19815    191505.45015      -325.82915        34.25415
J02                     36142.31311      -212.45711         9.77211                     48249.42011      -131.79311         8.05411
C01                         0.08921       -93.65821         7.00021
C03                         3.08221       -85.85421         7.00021
C04                         0.08423       -87.80523        19.27923
C05                         0.11621      -120.97521         7.00021
C06                    728257.01812     -1342.76812        16.51612
C07  36348579.40215   4086368.49215         4.95215        33.54315
C09  36491537.83415   1775960.08115      -783.46215        31.39115
C10  37325394.06715    -58238.06615        97.36415        31.90015
C16                    793922.65313     -1464.61313        17.60313
C22                    852194.86411     -2033.17611        10.41811
C27  22186064.70716    582979.55316     -1193.00216        38.45516
C28  25774941.67915    942864.26115     -3148.35115        31.79615
C29                  -1024139.78211      3246.82111         7.00011
C36  23034374.23516  -1081854.11716      1858.37616        41.12116
C37  25606009.82815   1513149.92415     -2769.11215        33.40215
E03                       392.04626      -534.63426        38.73126                                                                
