     3.03           OBSERVATION DATA    M                   RINEX VERSION / TYPE
GnssLogger          Xiaomi 10           20221118 115620 UTC PGM / RUN BY / DATE
Google GnssLogger                                           MARKER NAME
G    8 C1C L1C D1C S1C C5Q L5Q D5Q S5Q                      SYS / # / OBS TYPES
R    4 C1C L1C D1C S1C                                      SYS / # / OBS TYPES
J    8 C1C L1C D1C S1C C5Q L5Q D5Q S5Q                      SYS / # / OBS TYPES
C    4 C2C L2C D2C S2C                                      SYS / # / OBS TYPES
E    8 C1C L1C D1C S1C C5Q L5Q D5Q S5Q                      SYS / # / OBS TYPES
  2022    11    18    11    56   20.0000000     GPS         TIME OF FIRST OBS
 7 R09 -2 R105  5 R15  0 R17  4 R19  3 R96 -4 R98 -2         GLONASS SLOT / FRQ #
                                                            END OF HEADER
> 2022 11 18 11 56 20.2693908  0 29                      
G04                     17963.67112     -3065.45112        14.55412                                                                
G07  22621873.30315   -677704.57415      2814.76015        34.73615                                                                
G08  20252469.60716   -189176.72216       727.70316        37.55616  20252477.10215   -198343.43915       540.62315        30.75615
G09  22885938.89414    388132.19914     -1694.09814        24.24414  22885953.28413    379393.48913     -1263.20113        20.91013
G16  21749156.17216    194383.72816     -2038.31816        36.83216                                                                
G27  20269851.27416    374311.53416     -1633.16116        36.48416  20269861.46715    368641.51515     -1222.80515        32.79515
R09                   -255401.74814      3113.77714        28.17514
R15                    510574.85215     -2192.86915        32.79015
R19                    -78582.30511      3602.31111        10.86311
R17                    411152.51815     -3370.56515        31.35415
R105                    176798.32915     -1272.99315        30.43115
J02  39019085.05015    -68257.12015       294.09515        31.90015  39019099.44015    -67628.30015       217.64515        32.07615
J04  37663798.29515     92940.48615      -401.26915        33.26015  37663802.49215     89553.76015      -300.82815        31.31015
C03                     13359.20111       -77.72511         7.00011
C06                    296395.74013     -1277.04213        19.53213
C07  36355823.88715   4091052.47715        16.63715        32.52415
C09  36450400.31315   1528637.73115      -718.89215        30.59115
C10  37338299.23314    -24201.49314       104.03814        29.03214
C16                    320879.37613     -1404.44213        18.21213
C27  22122643.01315    219464.15915     -1018.82115        34.81115
C29                      -130.44821      3279.99721         8.54521
C36  23161159.16315   -454928.52415      1928.45215        32.04915
C37  25439478.41615    613190.95215     -2690.37015        31.52715
E10  24952375.93015   -335033.10415      2090.43315        31.91215  24952381.32614   1831179.60314      1580.35314        27.10114
E12                    -24714.07614       841.00614        27.18214                                                                
E18  20545866.29315    195993.75215     -2303.65015        33.92015  20545866.89215   -586170.55815     -1747.64015        30.42715
E24  23943593.79515     52398.16415      -306.18915        34.80315  23943600.99014    914835.46214      -238.77514        28.07014
E25  25513063.97315    -69948.68015      1513.50215        31.04115  25513072.36814  -1131693.84314      1151.29014        25.90614
E33  26819705.80414     79215.83014     -1827.77214        26.56614  26819707.60315   1315047.37415     -1381.00715        30.15915
> 2022 11 18 11 56 21.2693907  0 27                      
G04                     21048.77912     -3066.83312        14.21312                                                                
G07  22621307.89415   -680516.64515      2814.96915        33.17915                                                                
G08  20252299.32516   -189902.07916       729.83216        37.46916  20252307.12015   -198886.97115       545.57415        30.96015
G09  22886221.89813    389825.44113     -1694.66513        22.32413  22886239.58613    380648.45313     -1263.00213        20.35013
G16  21749521.91916    196429.59516     -2043.44716        36.91616                                                                
G27  20270133.97816    375944.56216     -1634.88316        35.86516  20270142.07315    369870.01615     -1224.16415        30.98215
R09                   -258519.10015      3122.75115        31.46415
R15                    512777.19715     -2190.88415        33.08915
R19                    -82176.75811      3600.77511        10.61911
R17                    414531.05715     -3379.63815        34.23715
R105                    178073.26414     -1269.96614        27.91114
J02  39019000.50815    -68549.52715       289.80615        31.90415  39019011.60015    -67840.84715       218.43915        30.25915
J04  37663839.96616     93349.41416      -403.20916        35.71416  37663850.15915     89861.22615      -299.67115        33.40915
C06                    297666.11813     -1276.03113        17.82513
C07  36355791.80915   4091034.77315        19.31815        30.84415
C09  36450508.23815   1529354.59215      -715.88115        30.41815
C10  37338250.66715    -24307.81115       105.11715        30.09315
C16                    322282.99912     -1401.65712        17.42312
C27  22122809.69815    220481.57915     -1015.66215        33.70415
C29                      -130.29121      3268.29021         7.00021
C36  23160760.43915   -456859.80415      1926.02415        33.87315
C37  25439967.67715    615892.11415     -2698.41115        30.23615
E10  24951942.43015   -337130.39215      2096.42015        30.59915  24951953.52214   1829609.36114      1586.50514        29.18514
E18  20546267.11516    198301.19016     -2304.19016        35.68616  20546280.30615   -584430.93115     -1746.10015        31.73215
E24  23943622.87515     52709.58515      -308.41715        32.45115  23943633.36814    915071.90414      -232.91014        28.38514
E25  25512746.19315    -71466.40115      1514.51915        29.91515  25512754.28815  -1132830.01915      1152.30815        29.79815
E33  26820022.08514     81056.41514     -1827.77214        28.60614  26820029.58014   1316448.59714     -1380.58514        27.86214
> 2022 11 18 11 56 22.0003907  0 28                      
G04                     23294.29412     -3074.57712        14.44712                                                                
G07  22620914.26715   -682574.53915      2822.99415        34.59415                                                                
G08  20252199.79416   -190435.58716       725.79416        36.83916  20252207.28915   -199288.38115       544.20915        31.54515
G09  22886449.44113    391062.90013     -1690.30313        22.03213  22886475.52313    381569.15913     -1263.15113        20.24013
G16  21749805.52315    197921.17215     -2041.17715        34.71615                                                                
G26  23644203.95815      4635.25915     -2669.17315        30.34415                      2911.73413     -1990.31313        22.19513
G27  20270363.91915    377139.05515     -1634.17815        35.23215  20270366.91715    370759.75115     -1223.29215        31.23615
R09                   -260795.02515      3119.99015        30.48515
R15                    514380.63615     -2197.38415        31.39515
R19                    -84820.08511      3589.16011         9.92111
R17                    417003.88515     -3371.62115        32.04315
R105                    179002.73814     -1260.62614        27.60014
J02  39018962.43415    -68761.34515       293.01915        30.93515  39018970.22914    -68003.91814       218.29514        29.37214
J04  37663899.02515     93651.81815      -403.71015        34.52715  37663907.41915     90080.79515      -302.42715        31.44415
C06                    298593.75913     -1274.08413        19.78913
C07  36355789.11115   4091018.17615        16.37615        31.77015
C09  36450608.96914   1529874.27214      -714.77014        28.26914
C10  37338236.87614    -24386.24314       110.30814        28.10814
C16                    323308.55912     -1402.30412        16.05512
C27  22122954.49715    221220.02915     -1014.40115        31.93315
C29                     -1924.41511      3268.28311         7.00011
C36  23160486.12916   -458271.90916      1930.11116        36.24716
C37  25440345.11615    617860.06115     -2694.34015        29.79615
E10  24951653.73015   -338674.46115      2092.56815        35.27115  24951663.62314   1828455.96914      1582.79514        29.06714
E18  20546596.88715    199999.16415     -2304.16615        33.99715  20546601.68415   -583159.54815     -1748.78115        31.39715
E24  23943668.74315     52935.72215      -308.59815        31.09615  23943678.03715    915244.81615      -234.82615        29.83815
E25  25512529.14415    -72579.02115      1512.06515        32.30915  25512542.03515  -1133662.22915      1153.37715        31.74915
E33  26820273.01114     82406.81814     -1827.01114        28.99614                   1317463.42514     -1378.23214        27.98614
> 2022 11 18 11 56 23.0003906  0 28                      
G04                     26378.23612     -3067.04812        14.48112                                                                
G07  22620346.76015   -685398.32115      2823.06215        34.69815                                                                
G08  20252029.51216   -191163.76216       725.88916        39.04516  20252038.50515   -199833.49315       543.04715        32.45815
G09  22886745.63613    392754.50513     -1688.40313        21.94913                    382837.39813     -1263.31013        18.79413
G16  21750165.87316    199967.23116     -2043.04116        37.48416                                                                
G26  23644686.62415      7308.42715     -2672.19215        34.52415                      4902.25714     -1992.16514        28.16714
G27  20270643.32615    378775.68815     -1634.86915        34.92115  20270649.02215    371975.85315     -1220.78515        29.82715
R09                   -263906.27215      3118.36515        31.34015
R15                    516579.35215     -2196.55315        34.65015
R19                    -88418.33711      3582.00011         9.06111
R17                    420383.95015     -3372.39315        32.97915
R105                    180267.36314     -1259.96814        27.31914
J02  39018878.79215    -69050.35815       295.90815        29.97015  39018886.28715    -68221.70715       219.96815        30.39715
J04  37663945.49315     94051.01315      -404.07315        33.35715  37663952.68814     90383.84414      -297.66014        28.97214
C06                    299866.67713     -1280.62713        19.21013
C07  36355755.53415   4090996.65915        16.34515        33.73815
C09  36450716.29414   1530588.23614      -716.09214        27.78414
C10  37338185.01214    -24499.22214       110.51414        27.71514
C16                    324705.89213     -1400.80813        17.99113
C27  22123111.28915    222228.55415     -1012.48315        33.66515
C29                     -5191.26811      3268.28311         7.00011
C36  23160086.50615   -460202.27115      1934.64215        34.85915
C37  25440833.47714    620549.54014     -2695.22814        28.83714
E10  24951222.32815   -340759.07315      2094.45415        33.04715  24951234.92014   1826876.02614      1583.17814        27.52014
E18  20547005.50415    202314.39015     -2306.21415        34.85015  20547010.30115   -581409.71515     -1748.54915        32.13315
E24  23943700.22115     53251.01115      -313.71115        31.63415  23943703.21914    915468.94914      -233.16514        27.38014
E25  25512212.26315    -74101.66715      1516.12215        33.25615  25512221.25715  -1134816.36315      1150.65515        30.93815
E33  26820593.48915     84241.32215     -1821.30615        29.65015  26820597.68714   1318849.91214     -1375.92114        28.05114
> 2022 11 18 11 56 24.0003905  0 37                      
G04                     29454.63312     -3073.51712        14.54912                                                                
G07  22619781.95116   -688212.70716      2821.93716        36.26316                                                                
G08  20251864.92616   -191888.53916       725.43216        36.98816  20251868.82315   -200375.15615       548.09315        33.21015
G09  22887035.53513    394439.71713     -1694.09613        20.63713                    384105.39013     -1264.01813        19.65113
G16  21750529.52215    202014.29915     -2045.20415        34.37915                                                                
G18                      5397.71213     -2672.19213        18.38713                                                                
G21                      -120.09921      3388.29021         7.00021                                                                
G26  23645165.69216      9976.05616     -2677.12916        37.18116  23645175.28614      6902.98014     -1999.47414        28.79114
G27  20270925.73016    380416.16616     -1640.37616        35.70316  20270929.62715    373203.13715     -1223.89815        32.29615
R96                       133.75221     -3338.68121         7.00021
R98                   -267029.83815      3117.92915        32.89715
R15                    518773.37216     -2201.73416        36.02916
R19                    -92005.72111      3593.86711         8.77211
R17                    423763.88715     -3379.83815        31.93115
R105                    181531.04814     -1258.79514        25.61814
J02  39018790.35415    -69340.39815       291.29715        32.94815  39018799.64715    -68446.39415       216.31715        30.17215
J04  37663991.36115     94452.85315      -405.65215        33.43615  37664000.05525     90683.71625      -299.87225        29.79925
J02                         6.07121      -219.51221        10.53921                                                                
C01                         0.08224       -83.90224        27.14724
C03                         3.07821       -80.00021         7.00021
C04                         0.07521       -76.09721         7.00021
C05                         0.11721      -119.02421         7.00021
C06  36594473.37313    301148.01013     -1286.42113        21.30313
C07  36355722.25715   4090980.10815        17.05215        33.67815
C09  36450823.92015   1531311.32015      -723.34215        29.61615
C10  37338131.94915    -24607.81815       106.47915        30.86815
C16                    326119.68713     -1411.06713        19.62613
C22                        35.57021     -1955.12021         7.00021
C27  22123280.37215    223238.53115     -1014.30515        32.24615
C29                     -8478.78111      3270.23411         7.00011
C36  23159684.48415   -462134.45215      1929.15815        33.64615
C37  25441323.63814    623250.01114     -2697.82214        28.68014
E10  24950800.52015   -342864.04115      2092.26715        33.56215  24950806.51614   1825280.72614      1578.41914        27.77714
E18  20547407.22615    204631.55415     -2310.95915        32.42115  20547423.11515   -579649.97215     -1747.57015        29.66015
E24  23943729.60115     53566.48515      -312.58615        32.04615  23943735.29714    915698.61314      -235.90314        28.36214
E25  25511891.78515    -75608.69215      1520.78315        32.93715  25511904.37614  -1135955.72814      1151.61714        29.17114
E33  26820901.37615     86069.51615     -1822.44415        30.33815  26820914.26714   1320237.31814     -1379.34414        26.42814
> 2022 11 18 11 56 25.0003905  0 37                      
G04                     32527.86612     -3072.04212        14.56112                                                                
G07  22619243.82316   -691031.10516      2823.06216        36.02216                                                                
G08  20251723.42416   -192613.43416       723.71316        35.85816  20251731.21815   -200915.44415       538.66915        33.65715
G09  22887367.40513    396135.17613     -1703.69513        20.70413                    385370.13212     -1264.85212        16.13512
G16  21750901.56416    204061.49316     -2046.64016        35.61616                                                                
G18                      8058.34413     -2672.19213        17.52713                                                                
G21                      -119.96323      3387.31423        19.50123                                                                
G26  23645680.73615     12649.61015     -2679.55215        33.23015  23645684.93314      8897.30014     -1997.25914        27.58914
G27  20271234.51616    382061.29516     -1638.76116        36.70316  20271240.81215    374424.12315     -1225.18215        32.23615
R96                       133.64221     -3335.75721         7.00021
R98                   -270153.30015      3120.66415        33.28215
R15                    520971.59515     -2196.14215        34.28515
R19                    -95599.58811      3587.45711         8.83511
R17                    427140.96615     -3379.92015        32.87315
R105                    182811.62814     -1268.43514        26.48014
J02  39018734.89215    -69627.36215       290.75315        33.78415  39018744.18515    -68661.75515       216.07515        31.42715
J04  37664068.40815     94861.56015      -406.99115        35.39315  37664077.40215     90985.80115      -303.56315        31.77515
J02                         6.07621      -220.48821         7.00021                                                                
C01                         0.08121       -85.85421         7.00021
C03                         3.07321       -78.04921         7.00021
C04                         0.07323       -78.04923        21.37123
C05                         0.10821      -115.12221         7.00021
C06  36594716.80513    302431.30713     -1287.64713        20.58513
C07  36355717.46115   4090964.13815        14.45915        32.40415
C09  36450963.62314   1532031.05214      -723.66014        29.38414
C10  37338111.26315    -24718.98115       107.65215        31.04815
C16                    327533.49413     -1409.24913        19.54313
C22                        35.47721     -1953.16921         7.00021
C27  22123479.13415    224260.33815     -1025.29115        34.84715
C29                    -11750.55511      3270.23411         7.00011
C36  23159320.83615   -464057.86115      1926.62615        34.03415
C37  25441843.77814    625954.13214     -2696.10214        29.17414
E10  24950394.90115   -344959.25415      2091.01215        31.96815  24950408.09214   1823704.83014      1577.92814        27.50314
E18  20547846.12215    206955.43015     -2315.43715        31.12315  20547854.81615   -577897.45015     -1749.55315        32.50115
E24  23943782.66415     53882.44215      -312.74515        34.02515  23943793.15714    915951.16114      -234.21714        27.49214
E25  25511606.08315    -77133.47715      1523.58115        32.85515  25511613.27814  -1137108.27314      1150.81214        29.30714
E33  26821250.03515     87888.95915     -1819.07515        31.44615  26821263.52614   1321633.89714     -1385.59914        28.77914
> 2022 11 18 11 56 26.0003904  0 37                      
G04                     35603.93712     -3078.82212        14.33012                                                                
G07  22618678.71515   -693845.36415      2821.17915        33.70015                                                                
G08  20251557.63816   -193343.20516       724.74416        36.85016  20251563.93415   -201449.65815       544.65615        32.24815
G09  22887657.90413    397837.66813     -1701.02713        21.33013                    386630.90012     -1270.35912        13.02012
G16  21751267.91116    206101.39016     -2044.46416        36.35516                                                                
G18                      2741.72621     -2674.14421         7.00021                                                                
G21                     -2823.93012      3384.01912        17.10712                                                                
G26  23646155.30715     15321.79515     -2677.45115        33.19815  23646164.90115     10891.67615     -1995.60015        30.35415
G27  20271516.62116    383704.94616     -1637.04416        36.19616  20271525.91515    375647.26315     -1222.43615        32.55515
R96                       133.59921     -3336.24421         7.00021
R98                   -273265.59915      3117.50315        31.49615
R15                    523165.85015     -2196.67915        34.50615
R19                    -99201.50011      3591.59411         7.97411
R17                    430516.44115     -3377.61215        33.50415
R105                    184077.25114     -1268.64014        28.59314
J02  39018656.04715    -69910.71315       290.10315        34.46715  39018659.04415    -68871.75715       219.12215        32.82415
J04  37664119.67315     95266.92415      -405.37315        33.93515  37664123.27015     91292.30215      -303.86115        30.58715
J02                         6.09521      -221.46321         7.00021                                                                
C01                         0.08321       -85.85421         7.00021
C03                         3.07723       -80.00023        17.95323
C04                         0.07521       -78.04921         7.00021
C05                         0.11121      -115.12221         7.00021
C06  36594935.35313    303717.45313     -1287.50213        20.06913
C07  36355684.48315   4090945.52515        14.36415        31.01815
C09  36451073.34715   1532750.17715      -717.88015        30.09715
C10  37338061.19815    -24831.63915       107.44015        30.42215
C16                    328942.67713     -1406.96613        19.17213
C22                        35.52221     -1953.16921         7.00021
C27  22123641.32216    225278.50216     -1014.30516        36.58716
C29                    -15023.15211      3272.18511         7.00011
C36  23158912.21916   -465985.51716      1926.80416        35.80116
C37  25442332.44014    628655.41514     -2695.14114        28.91214
E10  24949970.09515   -347046.58115      2089.57015        30.12015  24949982.38714   1822116.80614      1597.67914        28.00614
E18  20548268.82915    209284.11615     -2319.83315        29.94315  20548267.63015   -576135.47415     -1751.08315        31.21815
E24  23943818.04015     54196.87915      -313.49015        32.87115  23943821.93715    916195.00715      -237.51615        29.59615
E25  25511282.00715    -78656.22715      1524.82215        32.35115  25511292.20015  -1138266.45715      1153.41515        30.19415
E33  26821576.50915     89716.53515     -1819.07515        32.70915  26821581.00614   1323012.61814     -1383.67414        28.49414
> 2022 11 18 11 56 27.0003903  0 36                      
G04                     38680.04812     -3074.14212        14.23912                                                                
G07  22618108.50915   -696661.38715      2814.86815        34.83115                                                                
G08  20251387.65616   -194066.29616       721.26916        36.87216  20251396.65015   -201999.41115       544.55615        30.67115
G09  22887934.61313    399531.17213     -1689.16113        21.18513                    387879.69711     -1271.57911        11.35611
G16  21751633.35816    208143.44616     -2045.87216        36.14416                                                                
G18                      2741.66821     -2677.07121         7.00021                                                                
G21                     -6221.44612      3390.80512        16.62612                                                                
G26  23646633.17616     17996.32116     -2674.50716        36.83316  23646638.57314     12886.85114     -2000.39014        28.79814
G27  20271801.72415    385341.84715     -1645.85815        34.17515  20271808.01915    376879.92015     -1228.24615        30.09315
R96                       133.53723     -3335.75723        18.13623
R98                   -276378.70515      3114.78815        29.96115
R15                    525362.45415     -2200.03515        35.44915
R19                   -102801.31411      3590.62011         7.28011
R17                    433900.83015     -3379.13715        32.17815
R105                    185349.62615     -1275.64015        31.29215
J02  39018565.80915    -70204.29115       290.10415        31.76815  39018574.20315    -69086.88615       214.46615        31.74815
J04  37664164.04215     95672.91615      -404.31415        34.84315  37664171.83615     91596.50515      -306.87215        32.14115
J02                         6.05921      -218.53621        11.90121                                                                
C01                         0.08321       -83.90221         7.00021
C03                         3.07721       -78.04921         7.00021
C04                         0.07721       -78.04921         7.00021
C06                    305001.69913     -1280.23813        19.60913
C07  36355650.30715   4090929.89815        15.86915        31.36815
C09  36451180.67315   1533470.92515      -719.38115        30.76515
C10  37338011.73215    -24935.10815       102.86015        29.96415
C16                    330354.95213     -1409.27013        17.58213
C22                        35.56822     -1953.16922        13.33822
C27  22123811.30415    226297.38715     -1023.40015        34.71515
C29                    -18296.48611      3272.18511         7.00011
C36  23158518.89115   -467911.76215      1925.45015        33.82015
C37  25442819.30315    631360.16615     -2695.14115        30.68615
E10  24949543.49015   -349135.70515      2086.88415        33.64415  24949553.08414   1820526.61614      1582.54414        27.75814
E18  20548671.75115    211615.59215     -2322.83315        32.58915  20548676.54715   -574383.43315     -1751.06215        31.62315
E24  23943849.51815     54524.26915      -312.21815        32.90615  23943854.01514    916454.48114      -239.47714        27.26314
E25  25510965.42616    -80185.09016      1522.04016        35.52416  25510974.72015  -1139408.61015      1149.15015        30.11815
E33  26821891.59115     91558.67715     -1825.52215        31.09815  26821894.28914   1324387.26414     -1383.31814        27.99514
> 2022 11 18 11 56 28.0003903  0 36                      
G04                     41750.95812     -3078.27412        14.62612                                                                
G07  22617572.78015   -699475.27315      2810.01915        34.66015                                                                
G08  20251252.45016   -194795.75916       723.15816        39.10816  20251258.44615   -202541.72715       538.79815        31.31115
G09  22888260.48713    401213.57513     -1691.79113        20.01013                    389142.66911     -1248.78911         9.85411
G16  21752024.88715    210183.42815     -2043.20315        35.47815                                                                
G18                      2741.73121     -2677.07121         7.00021                                                                
G21                     -9606.20212      3386.69612        16.22412                                                                
G26  23647144.32315     20665.90315     -2671.98415        34.72215  23647151.21815     14891.15215     -1998.93815        30.06715
G27  20272110.81015    386983.47015     -1643.62415        33.99015  20272119.20415    378112.66315     -1225.46415        31.48615
R96                       133.71321     -3336.73221         7.00021
R98                   -279492.51915      3119.21215        31.12915
R15                    527567.10115     -2199.72215        34.49415
R19                   -106397.03011      3592.08211         7.00011
R17                    437282.52415     -3383.02915        34.52915
R105                    186622.71015     -1279.87415        32.29315
J02  39018509.44815    -70492.26015       290.06415        32.07915  39018519.04115    -69301.02515       212.91415        31.64415
J04  37664237.79115     96074.96315      -405.68815        34.27215  37664249.48315     91908.16115      -304.96815        30.91215
J02                         6.03723      -217.56123        18.39723                                                                
C01                         0.08022       -83.90222        15.08922
C03                         3.07421       -78.04921         7.00021
C04                         0.07221       -76.09721         7.00021
C05                         0.11121      -117.07321         7.00021
C06                    306283.12613     -1276.37413        19.94913
C07  36355647.60915   4090912.60715        16.79115        30.16715
C09  36451317.97815   1534188.72915      -723.60115        32.90215
C10  37337995.24414    -25033.20314       103.54414        28.49514
C16                    331771.99012     -1411.01012        16.63812
C27  22124007.96815    227323.31915     -1026.46515        35.25115
C29                    -21569.88511      3274.13711         7.00011
C36  23158139.95315   -469836.96115      1923.12815        34.18515
C37  25443340.94214    634051.19514     -2696.01614        28.18514
E10  24949145.36615   -351236.55815      2087.42215        33.37315  24949157.35815   1818938.32215      1577.37615        30.83315
E18  20549110.04715    213952.21515     -2321.97615        32.65415  20549118.14215   -572616.18915     -1751.59215        31.65615
E24  23943900.48315     54842.02915      -311.17315        33.67815  23943912.47414    916693.96714      -239.55514        27.50114
E25  25510671.92915    -81715.56215      1522.65915        34.68915  25510684.22115  -1140555.23815      1150.14515        32.47215
E33  26822235.75315     93387.50515     -1828.98315        35.19715  26822243.84714   1325777.94814     -1385.03814        28.76814
> 2022 11 18 11 56 29.0003902  0 37                      
G04                     44828.06212     -3078.07312        14.88512                                                                
G07  22617003.17515   -702290.83915      2821.40815        35.09715                                                                
G08  20251083.06716   -195518.09116       721.16816        38.39216  20251092.06115   -203084.98915       538.83015        33.17415
G09  22888541.69213    402909.34113     -1695.05913        21.04313                    390395.61612     -1247.24612        14.03512
G16  21752377.44215    212226.90415     -2047.64115        35.30015                                                                
G18                      2741.80921     -2678.04621         7.00021                                                                
G21                    -12993.31612      3390.51312        15.42212                                                                
G26  23647621.59215     23342.46615     -2673.93215        34.53915  23647630.58615     16892.20415     -1998.74315        29.70415
G27  20272392.91415    388624.21715     -1636.02015        34.46015  20272399.81015    379335.96615     -1217.63515        32.21415
R96                       133.71921     -3339.65621         7.00021
R98                   -282611.10015      3119.36115        33.07615
R15                    529759.31115     -2197.23415        34.27715
R19                   -109987.32611      3591.59411         7.00011
R17                    440666.90915     -3381.21815        34.21315
R105                    187903.20715     -1274.30315        30.68715
J02  39018424.30715    -70782.69415       292.14615        30.87315  39018433.90015    -69511.30015       214.37915        29.95415
J04  37664286.35715     96478.44615      -404.83315        33.82715  37664296.85025     92211.97425      -303.81325        30.26025
J02                         6.07021      -219.51221        12.05421                                                                
C01                         0.08122       -83.90222        14.52422
C03                         3.07821       -80.00021         7.00021
C04                         0.07621       -78.04921         7.00021
C05                         0.11621      -119.02421         7.00021
C06                    307565.45013     -1280.95013        18.89213
C07  36355615.23114   4090899.71514        16.60214        29.07914
C09  36451427.40215   1534905.41215      -723.01615        31.08415
C10  37337940.68214    -25142.24614       109.27014        27.84914
C16                    333187.57613     -1408.56413        18.10213
C22                        35.57321     -1957.07121         7.00021
C27  22124176.15216    228346.43116     -1019.99916        36.67116
C29                    -24840.50911      3272.18411         7.00011
C36  23157743.62815   -471757.93915      1925.41415        34.16715
C37  25443830.80214    636744.42414     -2693.82714        28.31814
E10  24948722.95815   -353330.05515      2089.17615        33.09915  24948728.65515   1817360.10215      1575.51715        29.84315
E18  20549526.45915    216290.16315     -2318.27915        34.52915  20549533.35415   -570863.52415     -1753.48115        31.46215
E24  23943936.15815     55151.37015      -310.44615        34.01815  23943939.75514    916933.94014      -235.48314        27.13214
E25  25510348.75315    -83246.06715      1517.50915        35.31615  25510364.64215  -1141722.28615      1151.97915        31.44115
E33  26822558.02915     95215.67615     -1832.96215        32.44215  26822561.32714   1327168.32314     -1384.28314        28.76914
> 2022 11 18 11 56 30.0003902  0 37                      
G04                     47906.76512     -3074.34112        14.50912                                                                
G07  22616470.14416   -705110.13616      2816.87316        40.28616                                                                
G08  20250945.46216   -196240.69816       722.46716        37.52016  20250957.15415   -203621.26015       537.60615        31.89215
G09  22888854.37613    404610.56413     -1695.71013        20.94113                    391656.39212     -1260.60312        13.85812
G16  21752767.47215    214275.21415     -2048.53515        34.59815                                                                
G18                      2741.72023     -2679.02223        17.57223                                                                
G21                    -16382.75212      3387.99412        15.60612                                                                
G26  23648137.83515     26023.07715     -2674.65515        35.00615  23648144.13014     18882.75914     -1993.82814        28.96914
G27  20272707.09715    390261.15415     -1636.82215        34.64715  20272712.79315    380556.97615     -1228.99015        31.68715
R96                       133.67721     -3340.14321         7.00021
R98                   -285723.68715      3119.37915        31.70915
R15                    531962.61415     -2201.64815        34.15915
R19                   -113576.21211      3589.64511         7.00011
R17                    444046.18715     -3382.39915        34.13015
R105                    189176.18715     -1273.30715        33.01115
J02  39018369.74514    -71070.69614       289.10014        29.32714  39018377.24014    -69721.83914       218.12614        28.07414
J04  37664363.10415     96884.15015      -403.88715        32.13115  37664372.99715     92516.10315      -302.97715        30.85815
J02                         6.04721      -218.53621         7.00021                                                                
C01                         0.08322       -83.90222        14.90922
C03                         3.08021       -80.00021         7.00021
C04                         0.07623       -76.09723        22.59323
C05                         0.11821      -119.02421         7.00021
C06  36595854.21713    308857.24713     -1287.52513        20.08413
C07  36355614.63214   4090889.29414        13.72014        29.43014
C09  36451565.60615   1535622.36915      -720.07615        29.72515
C10  37337920.89514    -25259.92714       110.48414        27.89714
C16                    334593.84313     -1407.26913        17.67913
C22                        35.51422     -1959.02322        16.52222
C27  22124371.91615    229370.25315     -1022.30315        35.14615
C29                    -28109.94111      3270.23411         7.00011
C36  23157370.68615   -473686.54115      1927.50415        34.90715
C37  25444345.84614    639439.55514     -2694.54114        27.88414
E10  24948315.84015   -355409.02415      2091.06515        33.53915  24948331.13014   1815795.31414      1578.81714        28.97014
E18  20549964.75515    218593.42715     -2315.11415        33.67115  20549969.55215   -569110.42415     -1754.65615        30.90915
E24  23943994.31815     55473.36615      -309.91015        32.11915  23943998.51514    917182.71414      -235.53014        26.57514
E25  25510060.65215    -84776.42415      1518.83315        33.50115  25510073.84315  -1142875.35015      1153.31315        30.42315
E33  26822915.68215     97041.07715     -1832.30715        31.47615  26822912.38414   1328551.42414     -1378.30214        28.71114
> 2022 11 18 11 56 31.0003901  0 37                      
G04                     50975.75012     -3080.20912        14.31312                                                                
G07  22615903.83615   -707930.61815      2816.87315        35.15415                                                                
G08  20250779.37716   -196959.87016       718.58816        36.76516  20250786.27215   -204163.69615       539.31115        31.59615
G09  22889151.77013    406305.92513     -1698.85613        23.33313                    392918.34912     -1262.90912        15.37512
G16  21753130.22116    216327.88516     -2048.56516        36.84416                                                                
G18                      2741.73623     -2676.09523        18.99923                                                                
G21                    -19769.65612      3384.96912        15.41712                                                                
G26  23648611.80715     28695.21615     -2677.50815        35.46315  23648622.00014     20882.46014     -1992.81814        27.57214
G27  20272992.49915    391902.62315     -1642.80815        32.25315  20272994.89815    381793.46315     -1232.40615        30.91415
R96                       133.53721     -3335.75721         7.00021
R98                   -288840.67915      3119.15315        30.95315
R15                    534158.07015     -2201.77515        32.24515
R19                   -117166.71111      3589.15811         7.00011
R17                    447431.71215     -3382.64615        33.30415
R105                    190448.81715     -1273.25015        32.84515
J02  39018287.30215    -71355.49615       291.48615        29.52015  39018291.79914    -69937.51414       216.87014        28.45714
J04  37664409.27215     97291.26515      -410.35515        32.98415  37664420.06515     92826.26715      -305.30315        32.52715
J02                         6.02522      -216.58522        14.92122                                                                
C01                         0.07821       -81.95121         7.00021
C03                         3.07321       -76.09721         7.00021
C04                         0.07121       -74.14621         7.00021
C05                         0.11022      -115.12222        13.63622
C06                    310144.04013     -1290.18813        18.37513
C07  36355580.15615   4090877.49415        15.60415        31.05415
C09  36451671.43314   1536347.52214      -719.97614        27.51114
C10  37337871.13014    -25366.39614       100.36114        26.99314
C16                    336001.69712     -1418.10212        17.39812
C22                        35.50721     -1953.16921         7.00021
C27  22124541.59915    230399.12615     -1023.00115        34.09615
C29                    -31382.47411      3270.23611         7.00011
C36  23156972.56116   -475609.17816      1926.55916        36.32816
C37  25444836.90614    642130.02814     -2696.11314        26.02914
E10  24947899.42915   -357504.19115      2092.11215        31.77715  24947906.92314   1814217.95114      1580.89614        26.75514
E18  20550377.27015    220901.48415     -2315.00515        30.88015  20550383.56515   -567354.22515     -1754.57815        31.84815
E24  23944021.59915     55784.60915      -310.69915        31.68315  23944034.79014    917429.46514      -238.53414        26.68214
E25  25509747.66915    -86307.95815      1520.37315        34.34115  25509755.46415  -1144026.85515      1151.42615        29.95115
E33  26823228.06614     98878.86714     -1835.31014        29.45114  26823228.96514   1329936.50014     -1382.75214        28.91814
> 2022 11 18 11 56 32.0003900  0 37                      
G04                     54054.26112     -3073.94812        14.31212                                                                
G07  22615341.42515   -710739.84315      2817.02715        34.28115                                                                
G08  20250609.99415   -197679.04515       718.03515        34.04215  20250621.68614   -204697.42514       540.65414        29.37814
G09  22889447.06614    408009.66514     -1695.44414        24.71214                    394174.82213     -1261.44213        17.90713
G16  21753489.67215    218368.98215     -2043.21615        34.20015                                                                
G18                      4883.25711     -2676.09411         7.00011                                                                
G21                    -23158.79712      3388.82612        14.83712                                                                
G26  23649081.88115     31369.47715     -2678.28615        34.51115  23649100.46815     22881.57315     -2001.94115        29.53415
G27  20273272.20615    393542.97815     -1644.18415        33.60615  20273278.50114    383017.04214     -1227.41014        28.67214
R96                       133.75221     -3338.68121         7.00021
R98                   -291960.08415      3116.84515        30.11115
R15                    536355.85615     -2196.79615        33.17315
R19                       -65.78421      3587.70621         7.00021
R17                    450814.15715     -3386.43315        34.02215
R105                    191726.08415     -1272.66615        33.26315
J02  39018203.95915    -71645.56815       293.91615        32.83215  39018208.15714    -70155.17114       216.88714        28.75514
J04  37664457.83815     97693.79915      -404.73515        34.40215  37664468.33115     93128.72715      -305.76415        33.69815
J02                         6.07121      -219.51221         7.00021                                                                
C01                         0.08221       -83.90221         7.00021
C03                         3.07621       -78.04921         7.00021
C04                         0.07623       -78.04923        19.60223
C05                         0.11521      -117.07321         7.00021
C06                    311426.45413     -1290.98513        19.85713
C07  36355546.87915   4090860.67815        16.79215        29.97815
C09  36451779.05814   1537069.56714      -722.12314        27.53714
C10  37337819.26614    -25461.61014       100.40114        25.87114
C16                    337418.91612     -1412.62212        15.40612
C22                        35.57021     -1955.12021         7.00021
C27  22124704.68615    231415.42715     -1020.68415        31.82615
C29                    -34655.13511      3274.13411         7.00011
C36  23156570.84015   -477530.30215      1927.18615        35.12315
C37  25445327.06714    644825.34514     -2700.11914        26.99914
E10  24947475.82215   -359586.13615      2091.79215        31.34115  24947476.42114   1812640.21714      1580.59214        27.10214
E18  20550792.48216    223231.78216     -2319.29216        35.63416  20550796.68015   -565595.39915     -1754.80715        33.22615
E24  23944051.87815     56086.35315      -310.54215        30.66015  23944063.87014    917675.15814      -239.41914        25.46814
E25  25509423.59415    -87822.29915      1520.37315        32.95215  25509437.08415  -1145160.75115      1146.95415        30.21715
E33  26823546.14515    100727.96115     -1835.31015        29.65815  26823550.34315   1331321.17215     -1385.53515        30.28915
> 2022 11 18 11 56 33.0003900  0 37                      
G04                     57127.97312     -3079.13912        14.01112                                                                
G07  22614801.49915   -713552.25015      2817.68715        34.57115                                                                
G08  20250475.08816   -198401.62716       720.52516        37.53416  20250481.68315   -205235.88815       539.39015        31.37215
G09  22889770.54214    409701.50014     -1691.92314        24.38014                    395433.70613     -1269.00313        19.54513
G16  21753879.10315    220408.85315     -2045.76615        32.66915                                                                
G18                      7561.30411     -2677.11811         7.00011                                                                
G21                    -26544.39712      3386.94112        14.32812                                                                
G26  23649601.42216     34045.80016     -2671.01016        36.01516  23649605.91915     24882.03915     -2003.97715        31.47315
G27  20273589.68615    395185.65315     -1643.39115        34.11015  20273591.78414    384243.65514     -1230.74314        28.34414
R96                       133.69022     -3338.19422        12.85822
R98                   -295071.15115      3119.17915        30.80515
R15                    538557.30316     -2201.74116        35.77416
R19                       -65.73321      3588.19321         7.00021
R17                    454196.74715     -3380.42015        34.26415
R105                    193008.76015     -1279.14715        31.80315
J02  39018149.09715    -71937.92415       295.01715        30.12015  39018151.49614    -70371.76214       218.68614        28.28114
J04  37664536.08415     98096.84215      -405.75815        33.10915  37664546.27715     93436.02515      -312.33515        32.71215
J02                         6.04921      -218.53621         7.00021                                                                
C01                         0.07921       -83.90221         7.00021
C03                         3.07321       -78.04921         7.00021
C04                         0.07221       -76.09721         7.00021
C05                         0.11021      -117.07321         7.00021
C06                    312708.60413     -1285.39413        18.56313
C07  36355545.38015   4090839.63315        15.84515        30.52015
C09  36451920.26114   1537793.53414      -722.40814        29.47414
C10  37337800.97814    -25567.65614       107.20314        27.37214
C16                    338829.27613     -1406.63213        18.66513
C22                        35.51121     -1957.07121         7.00021
C27  22124901.05015    232439.66515     -1022.49415        30.91615
C29                    -37926.47611      3270.23411         7.00011
C36  23156204.79316   -479451.75616      1928.60816        35.53816
C37  25445837.31314    647528.05214     -2697.76014        26.80214
E10  24947073.50015   -361666.83015      2090.56815        30.93315  24947081.59514   1811065.03214      1576.48714        28.16914
E18  20551228.08115    225552.10715     -2323.45515        34.05715  20551234.97615   -563828.45015     -1756.37015        33.27415
E24  23944117.83215     56412.17715      -310.85915        29.54215  23944119.33114    917912.46814      -231.56014        25.74114
E25  25509140.58915    -89328.42315      1520.80315        32.54015  25509147.78414  -1146328.02114      1151.10114        28.69914
E33  26823884.61115    102563.05315     -1835.31015        31.90215  26823890.90715   1332703.86715     -1383.48515        30.62415
> 2022 11 18 11 56 34.0003899  0 37                      
G04                     60207.50312     -3077.07312        13.79012                                                                
G07  22614235.79015   -716373.12415      2815.57415        32.80215                                                                
G08  20250304.80616   -199122.03216       722.52916        37.05016  20250314.69915   -205773.65815       539.83315        31.28515
G09  22890067.33614    411399.22814     -1693.29614        23.97614                    396698.85913     -1273.80713        17.84113
G16  21754228.36115    222451.57615     -2050.16815        32.60015                                                                
G18                      2741.78921     -2678.04621         7.00021                                                                
G21                    -29931.71712      3381.65712        14.11412                                                                
G26  23650078.39115     36719.63915     -2672.78615        32.93215  23650092.48214     26889.80814     -2003.86814        29.23714
G27  20273871.49115    396826.56315     -1644.75015        34.05615  20273872.09014    385479.16214     -1227.27814        28.40514
R96                      2805.78911     -3338.19011         7.00011
R98                   -298188.08715      3122.46615        30.32415
R15                    540765.97415     -2204.65815        32.80015
R19                       -65.64222      3584.78222        14.19822
R17                    457580.97415     -3385.15215        34.31915
R105                    194297.28215     -1277.50515        31.13315
J02  39018063.65714    -72235.70214       291.09114        29.12814  39018068.15314    -70588.44014       219.57114        28.59314
J04  37664586.15015     98499.52815      -405.59015        31.44015  37664595.74314     93739.52114      -300.14614        29.22714
J02                         6.09522      -221.46322        16.36322                                                                
C01                         0.08321       -85.85421         7.00021
C03                         3.07921       -81.95121         7.00021
C04                         0.07521       -78.04921        10.53321
C05                         0.11521      -119.02421         7.00021
C06                    313987.93613     -1281.41313        19.18913
C07  36355512.10315   4090824.37415        15.93815        31.49215
C09  36452029.98514   1538520.66514      -722.32514        29.13914
C10  37337750.91314    -25681.69814       107.90414        26.49414
C16                    340236.50513     -1408.13913        18.15613
C22                        35.57521     -1959.02321         7.00021
C27  22125067.73415    233466.90615     -1025.11615        32.42415
C29                    -41195.60311      3272.18511         7.00011
C36  23155805.17015   -481380.73815      1921.65915        33.13415
C37  25446321.47814    650228.97714     -2697.32114        26.92914
E10  24946644.19815   -363739.21715      2086.42515        32.63615  24946653.49114   1809508.50214      1573.80414        27.01414
E18  20551641.79415    227877.33215     -2325.12615        35.19115  20551650.48815   -562055.76315     -1760.73015        32.35915
E24  23944144.81315     56724.38815      -313.53015        31.41715  23944150.21014    918133.72414      -234.77014        27.53414
E25  25508818.91215    -90840.68415      1518.17815        32.27115  25508827.30614  -1147478.27414      1154.65614        27.72514
E33  26824214.38315    104378.95515     -1826.78015        30.40015  26824217.38115   1334091.09715     -1382.99715        30.29915
> 2022 11 18 11 56 35.0003898  0 37                      
G04                     63284.25012     -3082.41012        13.78712                                                                
G07  22613672.18115   -719185.74615      2818.96315        32.70815                                                                
G08  20250145.61616   -199840.53116       717.66516        36.86716  20250149.51325   -206309.34125       535.68325        32.24325
G09  22890354.23814    413102.69814     -1696.72814        24.71214  22890353.33813    397977.65713     -1276.12913        20.39213
G16  21754597.40615    224500.41815     -2047.63115        35.46615                                                                
G18                      2741.73022     -2680.97322        17.28922                                                                
G21                    -33309.91812      3388.40612        13.78912                                                                
G26  23650552.06416     39397.86116     -2678.66216        36.05216  23650568.55215     28886.73915     -1994.51015        29.58615
G27  20274149.99815    398475.21415     -1642.95115        34.98715  20274158.09214    386706.08614     -1225.74314        28.55414
R96                      6147.95311     -3345.78911        11.60611
R98                   -301305.49314      3119.31214        29.45114
R15                    542974.92715     -2200.99715        30.84615
R19                       -65.79121      3582.83221         7.00021
R17                    460966.64115     -3388.69015        34.43715
R105                    195574.91215     -1276.06115        33.42515
J02  39017976.41714    -72526.17714       290.64014        29.39414  39017980.01514    -70803.44114       218.06114        28.82514
J04  37664633.51715     98906.16315      -407.40815        31.15715  37664639.81214     94045.45914      -302.34114        27.64614
J02                         6.11422      -222.43922        13.82122                                                                
C01                         0.08721       -87.80521         7.00021
C03                         3.08121       -81.95121         7.00021
C04                         0.07923       -80.00023        19.27923
C05                         0.11721      -119.02421         7.00021
C06                    315274.56413     -1280.15213        19.43613
C07  36355474.62915   4090808.61615        17.76115        32.01415
C09  36452135.21215   1539241.52215      -720.77215        29.64615
C10  37337698.44915    -25788.90715       102.24915        29.60315
C16                    341646.65913     -1408.39113        18.13213
C22                        35.62122     -1959.02322        16.26122
C27  22125232.32015    234495.88915     -1026.72215        33.84415
C29                    -44463.06211      3268.28311         7.00011
C36  23155408.84415   -483307.16515      1927.30515        32.74215
C37  25446814.33714    652928.21214     -2703.05214        29.02714
E10  24946221.49015   -365828.06915      2082.03215        31.81015  24946226.28714   1807932.28314      1578.12514        27.54314
E18  20552046.81415    230208.94615     -2321.08215        33.99215  20552057.00715   -560275.70715     -1758.54115        30.62915
E24  23944174.49315     57036.94315      -312.85215        32.54015  23944180.78914    918364.19214      -238.06814        27.69514
E25  25508501.13215    -92365.46815      1515.22115        29.87715  25508504.73014  -1148631.29514      1152.77714        27.16514
E33  26824530.96415    106209.17815     -1822.21015        30.45515  26824530.96415   1335476.48615     -1380.55515        30.83315
> 2022 11 18 11 56 36.0003898  0 37                      
G04                     66368.03312     -3082.43812        14.12512                                                                
G07  22613136.15215   -722000.36815      2815.78715        33.19915                                                                
G08  20249999.91716   -200560.19016       716.73516        39.11516  20250015.80615   -206844.66615       538.69615        35.21115
G09  22890677.71414    414805.60614     -1698.36314        24.79814  22890675.31513    399248.54813     -1265.69413        21.80513
G16  21754984.13815    226549.29315     -2047.11015        34.15915                                                                
G18                      2741.76221     -2679.02221         7.00021                                                                
G21                    -36690.16812      3385.29312        14.01812                                                                
G26  23651064.70916     42081.68416     -2670.26316        36.02716  23651074.30225     30885.22425     -1998.48525        30.18225
G27  20274463.58115    400118.21815     -1642.32015        35.07315  20274469.27714    387938.03814     -1226.42914        28.32014
R96                      9490.37011     -3341.60211        11.01511
R98                   -304414.83615      3114.13415        30.02515
R15                    545174.02415     -2203.52915        31.87115
R19                       -65.74022      3583.31922        16.22522
R17                    464355.56115     -3385.47015        32.90515
R105                    196857.80815     -1280.26815        33.96215
J02  39017917.65815    -72813.98715       291.39215        30.82315  39017927.25115    -71021.54315       218.05115        29.65315
J04  37664707.86515     99310.91615      -405.62915        33.57415  37664718.95814     94349.27114      -307.36414        28.76214
J02                         6.10522      -222.43922        15.03622                                                                
C01                         0.08323       -87.80523        19.96123
C03                         3.07821       -81.95121         7.00021
C04                         0.07623       -80.00023        20.79523
C05                         0.11121      -117.07321         7.00021
C06  36597219.77213    316558.47713     -1286.19613        20.83513
C07  36355477.02715   4090792.79015        15.68815        31.63415
C09  36452274.91515   1539958.05915      -722.16915        30.15815
C10  37337677.46415    -25893.16215       102.69715        29.73215
C16                    343056.77012     -1411.36312        15.59012
C22                      1605.01511     -1969.60111        11.97311
C27  22125432.88215    235523.39315     -1025.48915        33.13015
C29                      -100.81321      3268.29021         7.00021
C36  23155029.60716   -485231.30816      1925.32516        35.89216
C37  25447335.37615    655626.63215     -2700.03515        30.00915
E10  24945823.06615   -367927.14415      2083.17715        30.45415  24945830.86114   1806354.72214      1581.85114        26.73014
E18  20552502.49915    232532.58115     -2319.21915        33.45915  20552501.89915   -558517.10515     -1760.94215        31.79815
E24  23944239.54815     57344.41315      -312.44015        32.64415  23944241.34714    918600.18814      -236.94814        27.60914
E25  25508211.83215    -93894.96415      1512.79615        31.55615  25508217.52814  -1149780.75014      1148.71314        26.66514
E33  26824885.91815    108038.09715     -1823.02315        29.61415  26824879.62215   1336869.47115     -1383.78415        30.83715
> 2022 11 18 11 56 37.0003897  0 37                      
G04                     69448.63812     -3079.32012        14.00512                                                                
