     3.03           OBSERVATION DATA    M                   RINEX VERSION / TYPE
GnssLogger          Xiaomi 10           20221118 105325 UTC PGM / RUN BY / DATE
Google GnssLogger                                           MARKER NAME
G    8 C1C L1C D1C S1C C5Q L5Q D5Q S5Q                      SYS / # / OBS TYPES
R    4 C1C L1C D1C S1C                                      SYS / # / OBS TYPES
J    8 C1C L1C D1C S1C C5Q L5Q D5Q S5Q                      SYS / # / OBS TYPES
C    4 C2C L2C D2C S2C                                      SYS / # / OBS TYPES
E    8 C1C L1C D1C S1C C5Q L5Q D5Q S5Q                      SYS / # / OBS TYPES
  2022    11    18    10    53   25.0000000     GPS         TIME OF FIRST OBS
 10 R06 -4 R101  1 R102  2 R103  3 R105  5 R15  0 R17  4 R24  2 GLONASS SLOT / FRQ #
    R93 -7 R98 -2                                           GLONASS SLOT / FRQ #
                                                            END OF HEADER
> 2022 11 18 10 53 25.0000551  0 39                      
G04  21555891.36715    700975.07415     -1481.17115        32.85215                                                                
G07  24898056.23425   -799346.59225      3144.17025        32.88325                                                                
G08  21575667.47616   -981802.86916      2688.97016        38.78816  21575679.46825   -582591.87025      2010.43425        32.78425
G09  22530715.41015   -229961.59615       599.30315        32.96115  22530719.00825   -186003.57025       448.43425        35.27325
G16                    678022.68912     -1190.31312        13.37412                                                                
G18                       476.12021      -661.46321         9.72021                                                                
G26                    127576.32522     -2240.97322        14.96022                                                                
G27  19949132.10327   -540962.98827       660.13027        41.57827  19949137.49926   -478945.89026       493.29826        35.69426
G31  24309248.85727   1475408.64827     -3230.51327        44.91727                                                                
R93                    944226.69212     -2727.57412        14.55012
R06                     13670.69811     -1555.82811         8.95411
R15                    238818.92912      -911.85712        17.40212
R101  23402726.53014    234272.87614     -4056.83914        27.51914
R102                    123872.42211     -3665.75211        12.00411
R103                     -6230.39021      4499.00821         7.00021
R17                     90576.67913      -444.41613        18.75013
R105                   -264277.12412      1667.60612        14.04612
J02  39195048.23327     14857.43127        -8.22727        41.86627  39195053.32925     12850.51225        -6.17825        34.83525
J04  37542997.52426     62014.21926      -128.53626        37.89126  37543000.82125     53382.71925       -96.15625        32.21325
J02                       502.19426      -350.24426        38.12926                                                                
C01  37574454.44625     39884.12125       -91.45325        34.72425
C03                         2.17124       -87.80524        27.22424
C04                         1.07025       -74.14625        34.59825
C05                         2.12121      -128.78021         7.00021
C06  35950624.10115    340270.30515      -688.48315        35.14915
C07  36466215.86415    -76095.94615       114.64915        33.33915
C09  36225927.11325     36468.76125      -116.83825        34.18225
C10  37511048.34214   2615843.60414       199.09014        28.32414
C16  36157364.27816    412173.06016      -835.60116        37.01816
C19                  -2171297.36911     -2366.83411         7.00011
C20                        58.12421     -2725.85121         7.00021
C22  26330425.92515    207033.79315      -553.77215        32.14615
C27  22199123.66627   -638927.40027      1048.61527        42.16527
C28                    868654.94911     -1877.07811         7.00011
C36  24797730.08925  -1214096.79725      2292.32925        33.09325
C37  23832238.58513    992304.93413     -1919.81613        22.63713
E05                    529537.44916     -1193.24516        36.38016  25031820.93124    407757.44424      -902.91324        27.41324
E24                    -83403.04616       125.00716        37.89116  23951555.68325    -66221.73625        94.40825        35.12425
E31                    740048.48811     -1528.77811         7.00011                    571260.41011     -1155.47311         7.00011
> 2022 11 18 10 53 26.0000551  0 39                      
G04  21556167.47626    702458.29326     -1483.21926        35.82926                                                                
G07  24897467.74215   -802488.62515      3140.87015        32.71415                                                                
G08  21575153.93227   -984492.99627      2690.12727        41.55027  21575153.63215   -584600.80615      2007.45015        30.93115
G09  22530601.48925   -230560.55225       598.95625        34.83525  22530606.58625   -186450.73325       447.16325        35.08925
G16                    679206.30012     -1191.18512        14.82012                                                                
G18                       476.11621      -660.48721         7.00021                                                                
G26                    127576.37222     -2239.99822        14.55722                                                                
G27  19949005.29126   -541622.47126       659.48326        40.55826  19949010.38725   -479438.30625       492.41625        34.81325
G31  24309861.93326   1478638.36326     -3229.71526        39.24626                                                                
R93                    946951.44813     -2728.90513        17.92113
R06                     15233.80711     -1556.37311        10.52511
R15                    239733.33313      -909.10713        18.08513
R101  23403485.00414    238331.41114     -4057.16414        28.57414
R102                    127538.06511     -3674.81411        11.59611
R103                     -6230.29321      4497.54621         7.00021
R17                     91022.50713      -444.16513        19.64713
R105                   -265947.04912      1671.91012        14.29112
J02  39195050.03126     14865.71026        -8.28026        40.66526  39195055.12826     12856.69926        -6.18726        37.83826
J04  37543017.61026     62141.75426      -127.53526        41.08226  37543024.50525     53477.96125       -95.24225        31.88525
J02                       502.21725      -351.21925        30.43425                                                                
C01  37574472.43426     39974.45326       -90.33226        36.82526
C03                         2.18023       -91.70723        21.72923
C04                         1.07224       -74.14624        28.18724
C05                         2.12821      -132.68321         7.00021
C06  35950755.11026    340958.79626      -688.49126        38.04426
C07  36466197.57715    -76213.50715       119.88815        32.34415
C09  36225951.99525     36585.94725      -117.18625        32.69025
C10  37511010.26814   2615643.76414       201.55214        28.07614
C16  36157528.56426    413008.37026      -835.31126        38.42026
C19                  -2168932.42012     -2366.83412        13.78512
C20                        58.20821     -2727.80221         7.00021
C22  26330532.65215    207587.55415      -556.72815        30.24315
C27  22198920.40726   -639975.70026      1048.29926        41.07626
C28                    870532.02811     -1877.07811         7.00011
C36  24797288.19525  -1216387.91525      2291.11825        31.69025
C37  23832630.41313    994233.74813     -1926.36313        21.24113
E05                    530731.73016     -1193.76316        36.08716  25032051.77124    408660.99924      -903.55524        25.35424
E24                    -83526.96916       123.43616        36.47116  23951529.60125    -66315.25325        93.51725        33.43925
E31                    741577.26611     -1528.77811         7.00011                    572408.97411     -1149.31511         7.00011
> 2022 11 18 10 53 27.0000550  0 39                      
G04  21556421.40015    703941.44515     -1483.16415        34.89115                                                                
G07  24896840.57615   -805631.46515      3147.06515        32.19815                                                                
G08  21574612.20716   -987182.64716      2690.19716        40.11316  21574614.00625   -586609.20025      2008.39425        30.73825
G09  22530460.58725   -231158.78925       598.23725        34.73625  22530461.48625   -186897.55325       446.82025        33.13025
G16                    680395.15912     -1184.93412        14.89412                                                                
G18                       476.21221      -662.43821         7.16621                                                                
G26                    127576.43122     -2240.97322        14.55722                                                                
G27  19948849.69916   -542281.55416       658.53116        39.60716  19948856.29425   -479930.79925       492.49425        35.08025
G31  24310442.63126   1481867.39626     -3229.03326        39.75726                                                                
R93                    949679.09213     -2723.50513        19.76413
R06                     16787.81911     -1556.21111        10.78311
R15                    240647.52013      -910.83213        19.34613
R101  23404222.79415    242387.86515     -4056.30615        31.65615
R102                    131205.84712     -3664.18912        13.09712
R103                     -6230.25921      4499.49621         7.00021
R17                     91466.72313      -441.21213        17.85713
R105                   -267618.28912      1671.38712        14.85012
J02  39195020.35226     14873.36826        -7.65826        40.61526  39195028.14726     12862.44726        -5.74826        37.46626
J04  37543005.61826     62268.99226      -127.23826        37.44426  37543019.70825     53572.97825       -95.01725        34.94625
J02                       502.21826      -349.26826        39.07926                                                                
C01  37574459.84326     40064.21426       -89.76126        37.14026
C03                         2.17924       -89.75624        27.68424
C04                         1.07124       -72.19524        28.34024
C05                         2.13121      -132.68321         7.00021
C06  35950857.63926    341646.52826      -687.73226        38.51926
C07  36466145.71315    -76330.38815       115.72015        32.23415
C09  36225943.90115     36703.35215      -117.10115        32.45615
C10  37510943.71414   2615442.83814       201.74014        25.61714
C16  36157658.67415    413843.34115      -834.20015        34.40615
C19                  -2166555.02511     -2370.73611        11.73211
C20                        58.25222     -2725.85122        12.52922
C22  26330606.70014    208146.13614      -552.61514        27.84914
C27  22198688.66826   -641024.19026      1048.49026        40.32726
C28                    872405.51111     -1877.07811        11.27811
C36  24796818.42015  -1218678.62315      2293.39915        30.94215
C37  23832961.38413    996164.50513     -1928.50113        21.90213
E05                    531926.18315     -1193.45015        35.10215  25032255.03024    409564.43324      -903.43424        27.16824
E24                    -83650.93916       125.33216        35.90816  23951479.23625    -66409.27625        94.02225        33.87825
E31                    743107.01611     -1528.77811         7.00011                    573555.42911     -1147.86711         9.38211
> 2022 11 18 10 53 28.0000549  0 39                      
G04  21556680.42116    705423.76016     -1481.01116        36.08016                                                                
G07  24896209.21315   -808775.82215      3146.02115        34.51515                                                                
G08  21574070.48226   -989873.19226      2690.54526        37.80226  21574076.47825   -588618.28725      2009.08725        32.21725
G09  22530311.89026   -231757.98626       599.19726        35.62126  22530319.68425   -187345.05425       447.50125        35.12025
G16                    681585.13313     -1183.31513        18.21813                                                                
G18                       476.10621      -660.48721         7.00021                                                                
G26                    127576.33121     -2239.02221         7.00021                                                                
G27  19948698.00426   -542941.61726       660.06326        41.31426  19948698.60325   -480423.61625       492.81725        34.27925
G31  24311033.52226   1485095.67926     -3228.28326        40.56826                                                                
R93                    952405.98013     -2724.79913        22.28713
R06                     18345.56311     -1565.86811         9.92311
R15                    241560.01012      -907.71012        17.33212
R101  23404965.67915    246439.47515     -4053.32915        32.37015
R102                    134872.27911     -3668.79611        12.23711
R103                     -6230.48921      4500.47021         7.00021
R17                     91907.84412      -440.74812        16.21712
R105                   -269286.47112      1672.27312        14.57212
J02  39194992.47126     14879.61126        -6.24426        38.65126  39194997.56826     12867.12626        -4.67926        37.20626
J04  37543004.71926     62395.27726      -126.28526        39.65826  37543014.61226     53667.21226       -94.23426        35.84026
J02                       502.16825      -348.29225        35.02725                                                                
C01  37574448.15126     40152.86526       -88.65026        38.86726
C03                         2.17124       -87.80524        25.60924
C04                         1.06725       -70.24425        30.32725
C05                         2.12621      -132.68321         7.00021
C06  35950960.16826    342333.76926      -687.24126        38.11526
C07  36466091.75025    -76448.83325       118.44425        34.18525
C09  36225932.80915     36818.88615      -114.03515        30.42315
C10  37510879.85814   2615239.84414       204.01614        25.78414
C16  36157789.38316    414678.04716      -831.72216        36.55416
C19                  -2164189.34812     -2370.73612        13.68512
C20                        58.14521     -2725.85121         7.00021
C22  26330687.04514    208702.03514      -546.34014        26.77114
C27  22198459.62627   -642073.19827      1049.00927        41.51227
C28                    874284.58711     -1879.02911         9.33711
C36  24796349.24515  -1220971.30215      2295.30715        30.61315
C37  23833296.55214    998086.49514     -1922.32414        26.40814
E05                    533118.34015     -1190.52715        31.97315  25032449.29624    410466.45224      -902.01924        27.78424
E24                    -83775.90916       125.41916        36.57416  23951421.97625    -66504.13025        94.85525        32.78525
E31                    744636.77011     -1528.78611         7.00011                    574702.16211     -1146.47811         7.00011
> 2022 11 18 10 53 29.0000549  0 39                      
G04  21556955.03126    706906.67626     -1482.91626        37.13226                                                                
G07  24895610.52725   -811919.86825      3144.04625        32.40625                                                                
G08  21573554.83926   -992563.42726      2690.23426        36.26626  21573561.13425   -590627.52825      2009.24125        32.20125
G09  22530199.16825   -232356.51225       598.52625        34.77825  22530204.86425   -187791.78925       446.73425        32.31825
G16  20637732.89513    682767.80413     -1188.67413        21.56713                                                                
G18                       476.14121      -661.46321        10.84821                                                                
G26                    127576.38423     -2239.02223        17.59323                                                                
G27  19948567.59416   -543601.04516       659.29016        39.44516  19948574.18925   -480916.16125       492.54425        34.16225
G31  24311647.19726   1488323.22826     -3227.54926        41.32926                                                                
R93                    955128.55013     -2719.01513        20.75513
R06                      2825.47512     -1561.00112        12.69512
R15                    242468.33712      -905.31712        14.62912
R101  23405728.95125    250491.79725     -4052.32225        33.58425
R102                    138538.50312     -3671.18812        13.00512
R103                     -6230.45523      4502.41923        18.39023
R17                     92345.40013      -442.31013        18.18213
R105                   -270958.49912      1667.74712        14.46312
J02  39194994.57026     14885.74326        -6.13126        40.09226  39194998.76726     12871.67126        -4.54426        36.93526
J04  37543028.40226     62520.79126      -125.51426        40.14026  37543035.29725     53761.02525       -93.81325        33.10125
J02                       502.14726      -346.34126        36.09426                                                                
C01  37574464.63926     40240.92626       -88.06226        38.46726
C03                         2.16921       -85.85421         7.00021
C04                         1.06825       -70.24425        30.56825
C05                         2.12521      -128.78021         7.00021
C06  35951090.57826    343020.76826      -686.99926        38.70226
C07  36466067.76725    -76567.07925       118.24625        32.66425
C09  36225957.39215     36934.77015      -115.84015        30.54515
C10  37510833.69014   2615039.48214       202.27514        26.04514
C16  36157948.87326    415511.12126      -833.07426        36.88726
C19                  -2161822.67812     -2370.73612        13.28812
C20                        58.17021     -2721.94921         7.00021
C22  26330789.57414    209256.98314      -553.56514        28.19814
C27  22198254.86826   -643122.29526      1049.09626        40.81626
C28                    876168.55411     -1875.12711         7.00011
C36  24795910.94814  -1223265.24314      2293.87514        29.33114
C37  23833667.09614   1000009.29814     -1920.95014        27.07714
E05                    534311.42515     -1194.14515        32.95815  25032678.03814    411363.22914      -900.44014        25.43614
E24                    -83900.94016       124.64516        35.66016  23951400.09125    -66598.74325        94.61325        31.92925
E31                    746163.41911     -1529.75411         7.00011                    575848.97011     -1146.47811         7.61411
> 2022 11 18 10 53 30.0000548  0 39                      
G04  21557209.25526    708391.64226     -1484.96626        36.45726                                                                
G07  24894984.86125   -815062.50925      3142.64125        29.76625                                                                
G08  21573012.51416   -995253.15116      2689.42016        37.14116  21573018.51015   -592636.12815      2010.94015        34.62115
G09  22530061.26315   -232957.86815       598.64315        32.26415  22530063.66125   -188237.75425       445.96625        29.81725
G16  20637925.06213    683954.00213     -1192.42313        20.29513                                                                
G18                       476.13421      -662.43821         7.00021                                                                
G26                    127576.29623     -2239.02223        21.94223                                                                
G27  19948415.29927   -544259.38027       658.33527        42.77727  19948418.29715   -481408.99415       493.94615        33.66315
G31  24312231.19327   1491550.96027     -3227.73227        42.12327                                                                
R93                    957854.50113     -2721.64713        20.56113
R06                      4377.55111     -1563.16111        10.75611
R15                    243375.29413      -910.07513        17.64813
R101  23406441.25826    254547.07826     -4055.28126        35.53726
R102                    142201.60412     -3671.06612        13.91412
R103                     -6230.41221      4503.88121         7.00021
R17                     92780.47312      -443.03912        15.51812
R105                   -272632.68312      1671.68912        14.27712
J02  39194963.69116     14892.39716        -5.90316        40.03716  39194969.38725     12876.63625        -4.96625        34.33525
J04  37543024.80526     62646.60826      -125.81826        40.56626  37543031.40025     53855.13625       -94.11125        35.29225
J02                       502.11926      -345.36626        35.85026                                                                
C01  37574452.04826     40328.42426       -87.49826        37.75826
C03                         2.17224       -85.85424        24.17724
C04                         1.06824       -68.29324        28.57524
C05                         2.12821      -128.78021         7.00021
C06  35951192.20826    343708.51026      -687.74226        37.14726
C07  36466014.70315    -76684.80215       117.23315        31.54315
C09  36225949.89725     37050.86925      -116.09825        31.55125
C10  37510761.74014   2614835.79214       201.21514        25.50114
C16  36158076.88426    416345.76126      -834.64126        37.51526
C19                  -2159458.72312     -2366.83412        15.54812
C20                        58.06421     -2721.94921         7.00021
C22  26330866.62014    209813.73814      -559.65814        27.20414
C27  22198026.42626   -644169.97026      1047.67526        40.52826
C28                    878039.93711     -1877.07811         9.71811
C36  24795437.87614  -1225556.18814      2290.89714        29.39414
C37  23834011.25714   1001931.73814     -1920.37114        27.51714
E05                    535506.35415     -1194.57315        32.26215  25032874.70114    412266.29214      -905.90914        27.82314
E24                    -84024.75316       122.53716        36.68116  23951347.02725    -66692.47825        93.73425        33.24725
E31                    747690.24711     -1529.76111         7.00011                    576992.81011     -1164.37211         8.05311
> 2022 11 18 10 53 31.0000548  0 39                      
G04  21557487.16215    709877.74315     -1489.32015        34.87615                                                                
G07  24894382.27815   -818203.50715      3142.73715        33.54415                                                                
G08  21572502.86716   -997937.97616      2687.68816        39.85016  21572508.26316   -594644.85216      2007.11916        36.72116
G09  22529945.24315   -233555.75315       597.73215        30.17515  22529947.04214   -188685.94914       445.47414        27.02114
G16                    685151.48512     -1191.16412        15.28012                                                                
G18                       476.16921      -663.41421         8.00621                                                                
G26                    127576.35522     -2239.99822        13.77122                                                                
G27  19948297.78116   -544912.45516       654.10416        39.08116  19948295.38215   -481904.52915       481.94415        33.23315
G31  24312842.46917   1494780.81917     -3230.51617        43.07117                                                                
R93                    960575.34412     -2728.44712        16.03112
R06                      5934.16711     -1559.82911         7.00011
R15                    244291.72712      -911.05712        14.33612
R101  23407195.53616    258603.20816     -4055.65216        36.72816
R102                    145876.70912     -3663.79612        13.44112
R103                     -6230.31521      4502.41921        12.03121
R17                     93215.03012      -442.00812        13.67312
R105                   -274300.08712      1666.62912        15.29112
J02  39194965.79016     14903.72816       -12.26816        35.61516  39194972.98515     12889.27315        -3.64315        31.75715
J04  37543048.18916     62775.50216      -125.60916        40.83716  37543053.28515     53952.35015       -94.27415        35.10115
J02                       502.14226      -346.34126        36.65226                                                                
C01  37574470.33526     40416.92726       -88.50326        37.61226
C03                         2.17224       -87.80524        25.21624
C04                         1.06723       -70.24423        22.68623
C05                         2.12521      -130.73221         7.00021
C06  35951328.01415    344402.25915      -690.30215        33.93115
C07  36465992.21914    -76806.15814       115.32814        28.58114
C09  36225970.28314     37168.45714      -119.01514        28.16414
C10  37510722.76714   2614636.92614       197.90914        28.71514
C16  36158240.87116    417189.79516      -839.73616        36.19716
C19                  -2157085.27912     -2366.83412        14.97612
C20                        58.12821     -2721.94921         7.00021
C22  26330973.94616    210372.29316      -558.07416        36.79816
C27  22197826.16516   -645210.74316      1043.22916        40.13316
C28                    879923.96511     -1877.07811         8.91811
C36  24794999.57914  -1227846.82714      2290.72314        29.41714
C37  23834373.70614   1003858.68614     -1926.66414        26.31314
E05                    536700.46215     -1197.68815        32.68315  25033095.94825    413170.79325      -904.50125        30.86725
E24                    -84146.96115       122.90515        32.62715  23951322.44515    -66774.43915        98.89315        29.67615
E31                    749218.62111     -1526.82711         7.00011                    578141.49911     -1199.62011         7.00011
> 2022 11 18 10 53 32.0000547  0 39                      
G04  21557742.58516    711368.84616     -1488.08016        38.57216                                                                
G07  24893766.50415   -821339.20615      3139.84615        32.19415                                                                
G08  21571963.54016  -1000626.25316      2685.85116        39.45316  21571964.74016   -596656.50516      2008.38616        37.86716
G09  22529798.04515   -234146.70615       591.64415        33.18015  22529804.04115   -189129.13515       443.02915        32.81715
G16                    686358.59012     -1201.23212        15.16012                                                                
G18                       476.24321      -666.34121         7.00021                                                                
G26                    127576.41922     -2241.94922        17.08122                                                                
G27  19948126.89916   -545573.29816       657.01716        36.83516  19948139.49015   -482385.00115       486.02215        33.72915
G31  24313427.66416   1498003.48016     -3225.15016        39.02016                                                                
R93                    963304.40113     -2728.62313        17.94613
R06                      7494.86111     -1559.44511         7.00011
R15                    245202.55312      -913.93912        15.63612
R101  23407934.82415    262659.18215     -4055.68115        34.23715
R102                    149547.67212     -3674.26012        12.58112
R103                     -6230.48022      4499.98322        17.47422
R17                     93657.61512      -450.28412        13.43712
R105                   -275965.99912      1670.76812        15.37512
J02  39194937.90915     14918.67015        -8.07315        32.19115  39194944.50515     12896.96215        -2.85615        31.85115
J04  37543040.39416     62901.40816      -124.88116        38.84816  37543049.08816     54045.81416       -95.49416        36.85316
J02                       502.19326      -349.26826        37.85926                                                                
C01  37574457.44426     40508.23826       -91.31126        37.08026
C03                         2.17825       -89.75625        33.00025
C04                         1.07124       -72.19524        27.32024
C05                         2.12821      -130.73221         7.00021
C06  35951429.04415    345086.98315      -689.73215        31.37815
C07  36465941.85414    -76921.13914       116.11014        29.10814
C09  36225968.48414     37289.35214      -116.70414        26.03914
C10  37510657.41215   2614437.41715       197.82115        30.51615
C16  36158370.98115    418030.20515      -835.25015        33.63915
C19                  -2154717.48412     -2370.73612        17.37812
C20                        58.21121     -2723.90021         7.00021
C22  26331050.09316    210935.03816      -560.21316        38.23816
C27  22197593.82616   -646255.44616      1049.20916        40.18316
C28                    881801.48211     -1879.02911         7.00011
C36  24794530.10415  -1230130.55415      2286.81015        30.65715
C37  23834704.67714   1005777.93414     -1925.61514        24.51114
E05                    537900.84415     -1194.96815        34.01715  25033295.91016    414076.22616      -905.13116        36.69516
E24                    -84270.97015       124.85915        30.88215  23951269.38114    -66867.27614        95.19614        26.45714
E31                    750746.42311     -1526.83511         7.00011                    579294.97511     -1144.31611         7.00011
> 2022 11 18 10 53 33.0000546  0 39                      
G04  21557996.80916    712856.20916     -1484.74116        35.65316                                                                
G07  24893136.64014   -824474.74314      3137.90214        29.27814                                                                
G08  21571423.31417  -1003314.24317      2689.18917        41.78717  21571425.11316   -598664.74916      2007.17816        38.22316
G09  22529657.74216   -234739.81216       592.86016        38.82616  22529661.34016   -189572.06216       444.27316        37.05516
G16                    687560.20711     -1198.54711        12.17311                                                                
G18                       476.15921      -663.41421         7.00021                                                                
G26                    127576.31423     -2239.02223        20.25723                                                                
G27  19947977.90226   -546229.99826       656.69926        36.11026  19947983.29915   -482880.34115       491.69715        34.30115
G31  24314010.76116   1501233.89416     -3228.62716        35.90416                                                                
R93                    966027.33213     -2722.45513        19.33613
R06                      9051.50911     -1566.89611         8.29211
R15                    246112.32312      -919.56212        14.54512
R101  23408669.61515    266715.37415     -4056.38115        32.79715
R102                    153216.35611     -3674.91011        12.18011
R103                     -6230.47422      4503.39422        17.18222
R17                     94115.60212      -449.50512        13.47612
R105                   -277630.71812      1662.06212        15.59512
J02  39194907.03015     14917.11915        -3.61415        30.80115  39194913.62615     12900.28815        -4.03015        30.80715
J04  37543037.69616     63027.14216      -126.16416        38.75016  37543041.59316     54139.90216       -90.90516        35.86216
J02                       502.12226      -345.36626        39.99626                                                                
C01  37574444.25415     40591.63915       -78.07815        35.04815
C03                         2.17124       -87.80524        27.51624
C04                         1.06425       -68.29325        31.68825
C05                         2.12521      -132.68321         7.00021
C06  35951527.97515    345775.58915      -687.73115        33.06015
C07  36465886.99215    -77038.00015       118.62415        30.59515
C09  36225956.79214     37410.43614      -119.46014        26.51414
C10  37510591.15815   2614240.16915       200.07115        30.23315
C16  36158500.19126    418865.36526      -835.16026        37.02826
C19                  -2152344.08412     -2373.23412        16.87012
C20                        58.08521     -2721.94921         7.00021
C22  26331129.83815    211496.02915      -560.59815        34.47115
C27  22197364.48416   -647301.93416      1047.05716        38.22716
C28                    883679.83711     -1880.98111         8.44011
C36  24794058.83015  -1232420.00215      2287.23515        31.72915
C37  23835044.94214   1007695.91514     -1920.55714        27.61614
E05                    539102.18516     -1198.03216        36.15516  25033492.27425    414982.04325      -905.81725        35.40725
E24                    -84393.59615       125.55715        29.82915  23951217.21714    -66940.57614        90.91414        28.42614
E31                    752273.06411     -1527.80311         7.00011                    580441.38611     -1140.20411         7.00011
> 2022 11 18 10 53 34.0000546  0 39                      
G04  21558280.41316    714337.39816     -1487.20016        38.74316                                                                
G07  24892523.86416   -827616.76316      3137.86416        37.27916                                                                
G08  21570905.87316  -1006001.64816      2686.63416        39.35216  21570914.86616   -600670.88216      2008.50116        38.60716
G09  22529544.72116   -235338.49016       588.67216        37.69916  22529548.61816   -190012.48716       440.30916        35.64016
G16                    688756.41311     -1189.35211        12.26411                                                                
G18                       476.21321      -665.36521         7.00021                                                                
G26                    127576.37222     -2239.99822        15.89222                                                                
G27  19947853.78816   -546887.10616       657.54416        39.69516  19947860.38416   -483375.09316       488.51116        38.28216
G31  24314628.93316   1504467.44716     -3225.81016        37.33216                                                                
R93                    968748.97813     -2726.21713        19.11513
R06                     10616.90911     -1573.79311         9.58111
R15                    247038.71612      -919.68112        17.38612
R101  23409434.68615    270769.14415     -4051.81315        31.65215
R102                    156891.07811     -3671.00811        12.40311
R103                     -6230.41322      4503.88122        13.91222
R17                     94561.39312      -446.07712        14.23212
R105                   -279289.69213      1666.37913        17.86113
J02  39194905.23215     14918.49915        -4.43215        34.48415  39194915.42515     12903.94915        -4.17815        33.28715
J04  37543061.37916     63153.21716      -124.02416        40.55616  37543067.97516     54243.83216       -93.59816        39.86616
J02                       502.13026      -345.36626        35.64826                                                                
C01  37574460.44226     40672.00926       -80.37026        38.02726
C03                         2.16923       -85.85423        19.96123
C04                         1.06624       -68.29324        26.74524
C05                         2.12623      -130.73223        21.49423
C06  35951661.98215    346464.65515      -690.44615        33.93415
C07  36465864.20815    -77151.44115       116.69015        32.43515
C09  36225978.37715     37532.19415      -117.58615        30.34515
C10  37510549.48715   2614034.62815       199.12715        33.51415
C16  36158660.88016    419698.83516      -834.23016        37.35516
C19                  -2149971.36113     -2372.25113        17.81613
C20                        58.14922     -2721.94922        14.06622
C22  26331228.47015    212054.59915      -560.60815        34.41015
C27  22197162.42416   -648343.25716      1046.87816        40.88216
C28                    885559.99311     -1879.02911         7.00011
C36  24793618.43515  -1234704.59115      2286.39315        33.63515
C37  23835417.28415   1009613.30915     -1921.22315        30.72415
E05                    540292.55615     -1200.17915        35.47615  25033722.21516    415895.58816      -905.24816        35.59416
E24                    -84514.31516       121.04816        35.91016  23951192.93415    -67033.00915        93.84015        34.65815
E31                    753799.89211     -1527.81011         7.00011                    581586.71011     -1146.47811         7.00011
> 2022 11 18 10 53 35.0000545  0 39                      
G04  21558534.03716    715825.45516     -1489.94516        38.57116                                                                
G07  24891897.59816   -830758.54116      3138.76316        40.03216                                                                
G08  21570367.44516  -1008686.50316      2684.04016        37.13216  21570372.24216   -602677.33816      2006.74816        37.40016
G09  22529398.72216   -235926.55516       588.89916        38.36716  22529405.61716   -190456.27216       438.92716        37.71016
G16                    689936.09712     -1190.19012        13.48712                                                                
G18                       476.20621      -666.34121         7.00021                                                                
G26                    127576.42523     -2239.99823        18.21923                                                                
G27  19947700.29416   -547541.04116       653.49516        39.46916  19947705.09116   -483854.17616       487.77916        39.85816
G31  24315215.62616   1507702.27216     -3226.85916        39.26416                                                                
R93                    971477.09313     -2730.89113        19.15913
R06                     12179.03111     -1566.82711        10.03211
R15                    247953.28212      -904.06312        16.75012
R101  23410137.39915    274827.23815     -4056.33015        32.17715
R102                    160558.70711     -3672.39611        11.54311
R103                     -6230.35121      4504.36921         7.00021
R17                     95007.76412      -451.73912        14.82512
R105                   -280957.02413      1664.05713        20.60413
J02  39194879.45015     14929.17515        -9.23515        34.70915  39194885.14615     12916.75715        -5.59915        34.56315
J04  37543056.58316     63272.94516      -124.00116        41.19116  37543059.58116     54333.78716       -92.45716        36.63616
J02                       502.14525      -344.39025        34.17325                                                                
C01  37574447.25126     40780.45126      -108.44226        36.99226
C03                         2.17125       -85.85425        31.81825
C04                         1.06825       -68.29325        30.65725
C05                         2.12921      -130.73221         7.00021
C06  35951765.71116    347157.19516      -690.29916        35.56116
C07  36465816.24115    -77264.85015       114.62115        32.96515
C09  36225973.88015     37649.70815      -117.43615        29.93315
C10  37510484.13215   2613837.90715       197.98715        32.06915
C16  36158792.78916    420532.04316      -837.27916        36.95416
C19                  -2147603.68513     -2371.80013        18.25213
C20                        58.21321     -2721.94921         7.00021
C22  26331312.41217    212619.02117      -564.09917        42.17217
C27  22196931.58416   -649387.01216      1045.70116        39.60616
C28                    887441.01311     -1880.98111         7.00011
C36  24793149.86016  -1236988.47916      2285.11316        39.40616
C37  23835761.14615   1011544.33515     -1921.19415        33.50315
E05                    541477.93816     -1203.38616        36.64616  25033921.57715    416801.83515      -908.00615        34.93515
E24                    -84625.72616       118.63816        35.80816  23951141.37015    -67130.37215        93.26315        33.16615
E31                    755327.88311     -1526.82711         7.00011                    582733.18811     -1146.47811         7.00011
> 2022 11 18 10 53 36.0000544  0 39                      
G04  21558784.96416    717319.00316     -1490.77916        36.63116                                                                
G07  24891274.03016   -833897.74916      3138.76316        39.10116                                                                
G08  21569826.32016  -1011370.86816      2683.61916        36.55516  21569830.21716   -604682.47816      2002.59616        35.52816
G09  22529258.41916   -236516.48616       587.27416        38.41216  22529263.81516   -190895.79216       439.58616        37.18516
G16                    691129.63912     -1189.00812        14.03712                                                                
G18                       476.24121      -667.31621        12.27421                                                                
G26                    127576.34323     -2240.97323        19.87723                                                                
G27  19947544.40216   -548192.54116       652.11016        40.10916  19947550.39816   -484343.06116       486.97716        38.97116
G31  24315798.72316   1510929.67116     -3229.85916        38.64716                                                                
R93                    974211.74813     -2726.42413        20.15613
R06                     13752.74811     -1556.13311        10.38211
R15                    248856.19212      -908.82412        14.66112
R101  23410881.18415    278884.56315     -4059.10015        32.01815
R102                    164233.17911     -3683.05011        12.08811
R103                     -6230.54423      4503.39423        18.98023
R17                     95456.17112      -450.15212        14.61212
R105                   -282617.96213      1656.59313        18.72513
J02  39194849.77015     14937.61115        -5.89515        34.28715  39194859.36316     12928.96316        -5.24716        36.22616
J04  37543049.98716     63404.16316      -124.00116        40.62916  37543055.38416     54436.89116      -100.68816        37.03616
J02                       502.12425      -345.36625        34.20225                                                                
C01  37574434.06126     40922.64926      -142.19826        37.87526
C03                         2.17123       -87.80523        22.49823
C04                         1.06724       -70.24424        27.26624
C05                         2.12821      -134.63421         7.00021
C06  35951867.34015    347847.83015      -690.75715        34.97315
C07  36465760.47915    -77382.22115       113.84415        31.87015
C09  36225966.08615     37773.50815      -118.84515        32.81215
C10  37510413.68115   2613640.64715       197.04715        31.19115
C16  36158920.20016    421368.07516      -835.47316        36.42116
C19                  -2145233.06912     -2370.73612        14.01312
C20                        58.10621     -2721.94921         7.00021
C22  26331388.55917    213189.55017      -564.09917        44.91117
C27  22196702.54316   -650429.76816      1044.14216        39.47816
C28                    889321.99311     -1880.98111         7.30211
C36  24792681.58416  -1239276.12116      2287.03916        40.07316
C37  23836097.21315   1013472.45615     -1921.81215        34.82215
E05                    542683.41516     -1205.41716        36.38116  25034118.24115    417703.22815      -907.58315        33.82415
E24                    -84730.85115       116.90115        34.61315  23951086.20815    -67219.48215        91.98215        32.83415
E31                    756855.68611     -1526.83511         7.00011                    583879.66511     -1146.47811         7.00011
> 2022 11 18 10 53 37.0000544  0 39                      
G04  21559072.46516    718809.65516     -1488.23116        38.66216                                                                
G07  24890674.14516   -837033.04916      3144.15816        37.78416                                                                
G08  21569319.97116  -1014052.11116      2684.77516        37.15916  21569318.77116   -606687.02816      2001.91816        36.19816
G09  22529142.99916   -237101.14116       589.85516        38.37916  22529151.09316   -191336.76916       440.13216        36.67616
G16                    692322.27412     -1189.51212        15.25412                                                                
G18                       476.23822      -666.34122        13.34522                                                                
G26                    127576.39021     -2239.99821         7.00021                                                                
G27  19947422.08716   -548848.32616       649.20916        40.82716  19947426.58416   -484825.82916       484.62616        40.49316
G31  24316410.29916   1514158.54316     -3233.71216        39.60216                                                                
R93                    976938.46713     -2728.22013        19.60013
R06                     15320.91711     -1568.06911        11.91111
R15                    249769.32612      -914.46012        14.85412
R101  23411645.65515    282940.91615     -4058.15415        33.51515
R102                    167905.23111     -3669.60111        12.41611
R103                     -6230.43721      4501.44521         7.00021
R17                     95912.13112      -451.24312        15.17812
R105                   -284276.94913      1663.01213        18.98413
J02  39194854.26715     14952.23915        -9.67115        34.71715  39194860.26316     12927.54016        -4.71316        37.29416
J04  37543072.77216     63531.00716      -124.00116        40.71916  37543079.06716     54531.99516       -95.55616        36.44416
J02                       502.16225      -347.31725        33.40125                                                                
C01  37574449.35026     40973.33426       -50.68626        38.32126
C03                         2.17724       -89.75624        26.44624
C04                         1.06824       -70.24424        29.01824
C05                         2.13121      -134.63421         7.00021
C06  35952000.14815    348538.10715      -692.98615        34.34815
C07  36465736.49615    -77493.94315       113.92515        32.06015
C09  36225990.36915     37899.91615      -119.61915        33.62215
C10  37510376.50715   2613448.69115       197.53015        31.39715
C16  36159084.18716    422206.52916      -837.40116        36.71116
C19                  -2142858.49612     -2379.85412        17.12112
C20                        58.19023     -2723.90023        17.65423
C22  26331496.48417    213760.25617      -564.09917        43.23417
C27  22196499.58316   -651478.30316      1040.27716        39.31016
C28                    891202.97411     -1880.98111         7.00011
C36  24792238.19116  -1241560.80116      2290.82916        38.94316
C37  23836463.85916   1015391.53116     -1925.87216        36.80916
E05                    543883.38216     -1201.20516        36.62716  25034345.18315    418597.61015      -904.18315        35.31615
E24                    -84832.60815       119.09815        33.76315  23951063.42415    -67307.11415        88.97815        32.57315
E31                    758383.29911     -1527.80311         7.00011                    585026.14311     -1146.47811         7.00011
> 2022 11 18 10 53 38.0000543  0 39                      
G04  21559323.39116    720303.61616     -1492.08416        39.42116                                                                
G07  24890050.87616   -840175.36216      3141.04816        36.62916                                                                
G08  21568777.34616  -1016736.71516      2685.84116        38.97616  21568779.14516   -608692.14416      2005.62816        39.02416
G09  22529008.69216   -237690.61916       590.57816        35.89916  22529010.49115   -191768.57715       438.93815        34.91315
G16                    693513.91312     -1189.67212        15.65912                                                                
G18                       476.27022      -669.26822        17.19822                                                                
G26                    127576.31921     -2242.92521         7.00021                                                                
G27  19947267.99416   -549504.37216       649.62916        39.59916  19947272.19116   -485306.08216       488.40216        38.56516
G31  24316996.99316   1517386.11716     -3229.83316        40.54216                                                                
R93                    979660.51313     -2730.36213        19.78513
R06                     16890.52711     -1562.63911        11.64411
R15                    250687.42113      -918.28313        17.98013
R101  23412369.65415    287004.45115     -4058.62415        33.53915
R102                    171584.89711     -3671.96211        12.08211
R103                     -6230.32021      4499.00821         7.00021
R17                     96362.73513      -452.44113        18.79513
R105                   -285941.32213      1674.86913        17.97713
J02  39194827.28615     14963.41015        -7.44815        34.68115  39194829.68416     12931.46216        -7.05116        35.55316
J04                     63658.07116      -124.00116        38.50616  37543074.57016     54621.68716       -94.57916        38.70316
J02                       502.19126      -350.24426        36.35226                                                                
C01  37574438.85716     41052.22416       -90.94016        37.61316
C03                         2.17925       -89.75625        31.71925
C04                         1.07424       -74.14624        26.78124
C05                         2.13221      -132.68321         7.00021
C06  35952103.27715    349229.59815      -690.96115        35.26915
C07  36465684.63215    -77607.16115       115.98815        31.79915
C09  36225983.77315     38023.39215      -121.80015        32.02115
C10  37510307.25515   2613252.96815       198.64215        33.01615
C16  36159213.39716    423042.74216      -837.69516        36.82716
C19  25987022.95813  -2140483.78913     -2372.05813        23.05313
C20                        58.08321     -2723.90021         7.00021
C22                    214328.42516      -564.09916        40.20916
C27  22196270.24216   -652529.39316      1040.41916        40.82616
C28                    893085.86711     -1880.98111         7.00011
C36  24791768.71616  -1243856.30516      2289.08116        36.73616
C37  23836806.52216   1017311.57216     -1924.09816        37.28016
E05                    545081.91416     -1199.37216        37.25616  25034543.34616    419505.28916      -907.30316        36.79616
E24                    -84932.86115       120.72315        33.29515  23951010.06115    -67384.53915        93.85915        31.70715
E31                    759911.10211     -1527.80311         7.00011                    586172.33011     -1146.47811         9.28211
> 2022 11 18 10 53 39.0000543  0 39                      
G04  21559607.89416    721793.85016     -1489.52716        37.90816                                                                
G07  24889451.59115   -843314.82315      3138.37415        35.03815                                                                
G08  21568265.60016  -1019422.24616      2684.49016        40.31016  21568269.49816   -610697.46016      2004.02216        40.23216
G09  22528893.27215   -238280.00715       589.72515        34.06815  22528898.66815   -192208.30415       437.45015        32.91715
G16                    694704.53113     -1194.64713        18.73013                                                                
G18                       476.28521      -669.26821         7.00021                                                                
G26                    127576.36623     -2241.94923        19.29323                                                                
G27  19947145.37916   -550155.94916       653.95716        39.49316  19947150.17516   -485792.35916       487.27916        36.74316
G31  24317607.67116   1520620.70716     -3230.27016        39.63716                                                                
R93                    982389.28213     -2732.95513        23.40013
R06                     18453.36511     -1563.90911        11.10911
R15                    251603.43812      -918.64812        16.66012
R101  23413110.44116    291064.30516     -4056.20616        37.70216
R102                    175253.06412     -3685.01512        12.52412
R103                     -6230.28721      4500.95721         7.00021
R17                     96816.03013      -450.91413        18.81113
R105                   -287615.06612      1678.88512        14.34512
J02  39194829.98416     14968.67416        -5.86016        36.08516  39194833.28215     12933.41015        -4.16815        32.46215
J04  37543087.76116     63783.98816      -127.62916        37.70716  37543095.85615     54716.42615       -96.47315        35.10515
J02                       502.17125      -348.29225        35.14925                                                                
C01  37574455.94525     41114.81525       -62.59125        35.35725
C03                         2.17624       -89.75624        26.18024
C04                         1.06924       -72.19524        24.41024
C05                         2.12721      -132.68321         7.00021
C06  35952233.68715    349913.47715      -690.62215        34.16515
C07  36465663.64615    -77720.94515       115.86115        29.97915
C09  36226002.96014     38138.59014      -119.91714        29.24214
C10  37510272.17915   2613054.81315       197.66115        31.67315
C16  36159373.78616    423879.24516      -835.70516        36.28316
C19  25987483.44014  -2138116.30814     -2373.18314        26.04514
C20                        58.14721     -2723.90021         7.00021
C22  26331662.56916    214888.07916      -561.92016        36.82516
C27  22196071.47916   -653575.27116      1043.70116        40.26716
C28                    894963.29611     -1882.93211        11.73611
C36  24791331.31815  -1246143.73615      2283.88915        33.71215
C37  23837174.06816   1019234.93316     -1921.80316        38.31116
E05                    546288.61916     -1200.69916        36.28916  25034772.08825    420413.75125      -908.46225        34.37425
E24                    -85033.23515       123.67215        32.72815  23950988.77514    -67468.78814        95.44614        29.06214
E31                    761440.84811     -1527.80311         9.09811                    587317.88311     -1152.71311         7.00011
> 2022 11 18 10 53 40.0000542  0 39                      
G04  21559865.41615    723285.83715     -1494.46015        33.44215                                                                
G07  24888824.12615   -846456.86815      3142.09015        31.02715                                                                
G08  21567725.97426  -1022104.74426      2682.49926        38.36226  21567726.27415   -612701.29415      2004.13515        34.91815
G09  22528756.86615   -238867.59515       588.97715        29.50815  22528760.16424   -192648.78124       440.47724        28.41624
G16  20639989.73213    695894.88613     -1189.62113        20.30113                                                                
G18                       476.30121      -669.26821         7.00021                                                                
G26                    127576.41924     -2241.94924        24.62924                                                                
G27  19946990.98516   -550805.92816       650.03616        39.17316  19946994.58315   -486267.44915       480.64615        33.32515
G31  24318197.96226   1523851.03726     -3230.33026        40.70526                                                                
R93                    985116.21514     -2731.57114        25.30814
R06                     20025.23411     -1563.19811        10.24911
R15                    252512.39112      -917.55912        16.39512
R101  23413867.41725    295122.24925     -4057.94325        35.47625
R102                    178930.38712     -3673.02112        12.54012
R103                     -6230.50722      4501.44522        14.01022
R17  17052626.41213     97270.07513      -451.71113        20.22913
R105                   -289292.87912      1666.62112        17.28212
J02  39194797.60626     14975.92626        -7.25226        38.13926  39194803.60225     12938.69825        -5.28825        33.84925
J04  37543088.96026     63912.01026      -128.02126        40.06726  37543092.55816     54813.06916       -96.41516        36.27616
J02                       502.16426      -347.31726        39.93926                                                                
C01  37574441.55526     41166.14326       -51.32826        36.27126
C03                         2.17824       -89.75624        26.78124
C04                         1.07125       -72.19525        31.36425
C05                         2.13021      -132.68321         7.00021
C06  35952336.21615    350604.55215      -687.23915        33.80315
C07  36465613.58114    -77836.54814       114.68014        27.76614
C09  36225998.76315     38258.94215      -117.29415        30.03415
C10  37510208.92314   2612852.32014       198.86714        28.30314
C16  36159507.79416    424716.42616      -838.03316        36.70916
C19  25987915.74014  -2135748.87514     -2373.64614        23.92114
C20                        58.21121     -2723.90021         7.00021
C22  26331774.39215    215448.30515      -560.15015        31.78815
C27  22195841.83826   -654616.35126      1041.08026        41.11026
C28                    896841.34012     -1882.93212        13.27912
C36  24790867.24014  -1248425.92414      2287.33414        29.17714
C37  23837517.03016   1021160.59316     -1926.81716        40.48716
E05                    547506.63615     -1200.36415        31.58715  25034979.84415    421319.85315      -913.81415        29.76715
E24                    -85134.98415       120.53415        33.26415  23950936.01214    -67561.36714        95.45514        28.68214
E31                    762970.60111     -1527.81011         8.42911                    588463.34811     -1155.39611        10.84811
> 2022 11 18 10 53 41.0000541  0 39                      
G04  21560120.83915    724776.89315     -1492.45015        31.92115                                                                
