     3.03           OBSERVATION DATA    M                   RINEX VERSION / TYPE
GnssLogger          Xiaomi 10           20221118 113319 UTC PGM / RUN BY / DATE
Google GnssLogger                                           MARKER NAME
G    8 C1C L1C D1C S1C C5Q L5Q D5Q S5Q                      SYS / # / OBS TYPES
R    4 C1C L1C D1C S1C                                      SYS / # / OBS TYPES
J    8 C1C L1C D1C S1C C5Q L5Q D5Q S5Q                      SYS / # / OBS TYPES
C    4 C2C L2C D2C S2C                                      SYS / # / OBS TYPES
E    8 C1C L1C D1C S1C C5Q L5Q D5Q S5Q                      SYS / # / OBS TYPES
  2022    11    18    11    33   19.0000000     GPS         TIME OF FIRST OBS
 8 R06 -4 R07  5 R09 -2 R105  5 R15  0 R17  4 R19  3 R96 -4  GLONASS SLOT / FRQ #
                                                            END OF HEADER
> 2022 11 18 11 33 19.7049990  0 26                      
G04                     28265.95913     -2672.96513        19.23313                                                                
G07                    -32599.11617      3057.79417        43.41817                                                                
G08                    -14891.98817      1482.37617        41.78317                   -130514.73811      1227.40911         8.63811
G09                      9906.30416      -934.12416        38.32216                     94894.66712      -692.69212        13.30412
G16                     19675.14315     -1777.34015        32.84615                                                                
G18                     21638.91515     -2039.47815        30.64815                                                                
G21                    -37520.86712      3547.91312        14.83012                                                                
G26                     26977.23413     -2530.88713        23.31213                    263167.65411     -1882.93511         8.56811
G27                      9436.07914      -891.80114        28.17714                     93643.82611      -653.66811         7.82511
R09                    -30771.93516      3061.30116        38.27116
R15                     17025.94515     -1696.03315        30.32515
R19                    -33512.29011      4129.04311         9.13011
R17                     25635.59816     -2493.34416        38.45716
R07                      2209.18416      -225.44916        39.81816
J02                     -2017.07115       181.45915        31.71515                    -15599.53911       261.55611        10.21011
J04                      3284.65316      -310.48716        38.88216                     30600.35011      -224.40011        12.29811
C01                       904.33913       -86.17613        22.57213
C06                     10754.72016     -1069.40716        38.17416
C07                      -300.53816        29.27316        36.52716
C09                      4936.46716      -491.22716        37.06916
C10                     -1172.15115       118.87615        34.60915
C16                     12154.08814     -1214.07614        25.41614
C27                      3126.65416      -284.57516        40.94616
C28                     28726.24615     -2820.94815        33.30515
C36                    -23477.32415      2116.88815        32.73315
C37                     26076.63013     -2352.85013        18.89013
> 2022 11 18 11 33 20.7049990  0 27                      
G04                     30940.28713     -2671.97313        20.32513                                                                
G07                    -35659.12716      3056.48316        40.68916                                                                
G08                    -16372.98516      1482.12716        39.30216                   -131694.14511      1227.39011         7.00011
G09                     10837.91416      -934.65416        36.22716                     95510.74611      -564.31911         8.25211
G16                     21452.06415     -1776.93915        32.55415                                                                
G18                     23676.21214     -2039.96314        28.56514                                                                
G21                    -41066.94213      3546.63213        17.76713                                                                
G26                     29504.32514     -2531.79514        29.03614                    264973.61311     -1757.97311         8.74711
G27                     10327.29815      -890.95015        32.90915                     94219.29111      -531.37411         7.00011
R09                    -33835.82315      3063.00615        34.02115
R15                     18719.85115     -1693.07815        33.24115
R19                    -37635.64311      4122.05511         7.36211
R17                     28132.40515     -2497.80215        33.98215
R07                      2434.72716      -225.75216        39.35816
J02                     -2201.03614       182.88614        28.53214                    -15807.42211       256.12611         7.00011
J04                      3596.97015      -311.50915        35.31515                     30830.70314      -233.92114        27.23214
C01                       990.47114       -86.14514        25.26714
C06                     11825.83715     -1069.86915        34.63415
C07                      -329.47316        28.70416        39.78816
C09                      5429.12515      -492.06715        30.07215
C10                     -1289.42415       117.49015        34.18515
C16                     13366.63014     -1213.61514        28.06114
C22                      6372.02613     -1563.38213        22.70513
C27                      3413.22816      -286.24316        37.82116
C28                     31565.75615     -2788.48015        31.61115
C36                    -25640.80615      2135.56115        30.71615
C37                     28430.65313     -2354.73513        18.40013
> 2022 11 18 11 33 21.7049990  0 27                      
G04                     33614.91613     -2673.19513        20.18813                                                                
G07                    -38714.81916      3056.12816        40.82116                                                                
G08                    -17851.40315      1478.70015        34.67215                   -132944.60511      1102.42811         7.00011
G09                     11775.44215      -938.97715        31.74615                     96066.39911      -579.50311         7.00011
G16                     23231.73915     -1778.59215        32.54815                                                                
G18                     25714.95916     -2041.24116        35.73816                                                                
G21                    -44612.82512      3547.15812        13.39612                                                                
G26                     32037.44215     -2538.75015        30.77115                    266705.41411     -1882.93511         7.00011
G27                     11221.25116      -892.89816        35.73116                     94728.77811      -653.66811         8.63611
R09                    -36900.93415      3064.44515        32.44915
R15                     20413.93415     -1693.25115        34.92915
R19                    -41752.03111      4115.08011        12.34811
R17                     30633.70715     -2501.30015        31.88215
R07                      2661.32515      -225.79715        32.23815
J02                     -2386.18815       181.27015        32.00415                    -16079.57311       136.57511         7.00011
J04                      3912.19215      -315.42215        31.94715                     31063.67615      -238.45515        30.78815
C01                      1076.91614       -86.82714        25.46414
C06                     12898.61515     -1073.92915        32.67815
C07                      -357.40916        28.29816        38.21416
C09                      5924.41415      -492.05215        31.92415
C10                     -1403.80715       114.57415        35.08315
C16                     14581.33814     -1213.13614        25.11314
C22                      7937.85613     -1564.88313        21.27913
C27                      3702.89815      -289.31915        33.61715
C28                     34409.17314     -2788.48014        28.21814
C36                    -27812.94714      2129.70214        25.46314
C37                     30784.26612     -2356.54712        16.76112
> 2022 11 18 11 33 22.7049989  0 27                      
G04                     36290.45613     -2674.48413        17.94313                                                                
G07                    -41771.29116      3055.71416        37.00016                                                                
G08                    -19328.67715      1477.43415        33.63515                   -134173.98711      1227.39011         7.00011
G09                     12714.69715      -940.24215        30.56315                     96688.12811      -577.18211         9.41911
G16                     25015.85415     -1781.43215        31.50615                                                                
G18                     27757.15116     -2041.95616        38.86616                                                                
G21                    -48159.48212      3546.37812        14.52612                                                                
G26                     34570.87415     -2537.61715        30.78015                    268512.09211     -1757.95411         7.00011
G27                     12115.43615      -891.86915        34.27115                     95304.07711      -532.91711         7.00011
R09                    -39966.43815      3064.23315        31.88315
R15                     22108.03115     -1694.11915        31.98115
R19                    -45861.20711      4107.75611        10.90011
R17                     33136.57316     -2501.86016        38.33116
R07                      2885.48115      -225.75415        31.96115
J02                     -2566.62714       180.86114        29.32914                    -16331.42511       250.20011         7.00011
J04                      4229.48715      -316.43715        29.96915                     31301.60415      -239.33815        30.04415
C01                      1163.37513       -86.37513        22.93113
C06                     13974.28415     -1076.47815        33.58415
C07                      -385.92116        29.15416        37.25316
C09                      6417.67215      -492.75915        32.96415
C10                     -1518.08615       113.15815        30.54815
C16                     15797.37014     -1211.71914        25.39614
C22                      9502.67113     -1562.84113        19.25813
C27                      3992.43815      -289.48515        30.34915
C28                     37318.86815     -2788.48015        30.04915
C36                    -30057.72415      2101.15915        31.33515
C37                     33139.26812     -2357.09812        16.84012
> 2022 11 18 11 33 23.7049987  0 27                      
G04                     38965.24813     -2674.47913        18.64713                                                                
G07                    -44827.20916      3055.09516        37.12216                                                                
G08                    -20804.20016      1475.24916        37.71816                   -135353.35711      1227.39011         7.00011
G09                     13653.05715      -941.58715        29.57415                     97244.76911      -580.31611         7.00011
G16                     26801.04615     -1783.87715        33.90715                                                                
G18                     29799.97016     -2042.87016        40.38916                                                                
G21                    -51706.71912      3545.01312        12.60912                                                                
G26                     37108.45515     -2540.49515        32.72815                    270246.55311     -1882.93511         7.00011
G27                     13007.31815      -891.35215        31.85815                     95813.36711      -653.66811         7.73511
R09                    -43030.78715      3062.72415        32.97415
R15                     23803.92214     -1694.72514        29.48114
R19                    -49963.36311      4101.00011         7.00011
R17                     35637.47516     -2501.48016        38.25516
R07                      3108.06715      -225.80415        30.15815
J02                     -2745.57814       179.34414        29.25414                    -16537.33211       250.20011         7.00011
J04                      4545.34614      -316.59414        28.54514                     31537.92814      -239.97114        27.09114
C01                      1249.80514       -86.90414        28.97614
C06                     15051.27115     -1078.22715        31.24715
C07                      -414.46316        29.10316        36.26616
C09                      6911.99914      -495.52414        28.59014
C10                     -1630.81515       111.89615        29.85215
C16                     17008.31714     -1210.52114        25.12714
C22                     11067.54313     -1567.33413        20.00713
C27                      4281.59015      -289.26915        31.97115
C28                     40229.19614     -2854.71614        27.50614
C36                    -32322.99815      2243.74915        31.82515
C37                     35498.28712     -2359.47312        16.48912
> 2022 11 18 11 33 24.7049987  0 27                      
G04                     41642.18713     -2677.04913        21.30113                                                                
G07                    -47882.76316      3055.00216        37.18616                                                                
G08                    -22278.53116      1473.66916        38.53116                   -136603.72211      1102.42811         7.00011
G09                     14592.22514      -941.08414        28.90714                     97871.51711      -573.86611         9.37211
G16                     28585.74216     -1785.15416        35.90216                                                                
G18                     31844.58016     -2044.60316        41.43816                                                                
G21                    -55254.64011      3548.19711         7.27711                                                                
G26                     39648.69415     -2540.93015        32.46115                    272052.30811     -1757.95411         7.00011
G27                     13901.40615      -894.66915        34.61515                     96388.88711      -532.93611         9.26811
R09                    -46092.62315      3061.71115        32.77115
R15                     25501.86114     -1694.70914        26.94814
R19                    -54059.35211      4096.17211        10.08011
R17                     38139.02416     -2500.75816        37.58516
R07                      3335.15315      -226.95215        30.53115
J02                     -2924.70814       178.47714        28.35114                    -16807.13311       136.57511         7.00011
J04                      4859.73414      -318.00314        27.46914                     31773.64414      -240.79814        24.78314
C01                      1336.30614       -86.60614        26.20014
C06                     16127.96215     -1078.18115        30.08715
C07                      -441.88615        27.29015        30.88015
C09                      7406.63015      -494.85915        33.75015
C10                     -1744.48515       112.28515        30.28415
C16                     18222.53714     -1210.51714        23.79014
C22                     12639.14113     -1572.97413        20.23513
C27                      4571.74315      -289.44415        33.49115
C28                     43178.17114     -2857.31614        24.02414
C36                    -34594.78714      2237.76514        28.86314
C37                     37858.21112     -2359.70812        15.70012
> 2022 11 18 11 33 25.7049987  0 27                      
G04                     44322.66813     -2681.35213        20.51113                                                                
G07                    -50937.24716      3055.00816        37.09416                                                                
G08                    -23751.46615      1473.23215        34.44415                   -137833.09611      1227.37111         7.00011
G09                     15531.18214      -942.16314        25.80814                     98426.17811      -574.64011         7.00011
G16                     30371.43516     -1787.03116        35.72916                                                                
G18                     33889.86017     -2045.95417        42.26117                                                                
G21                    -58802.43511      3548.86611        10.73711                                                                
G26                     42190.82216     -2541.58616        36.51816                    273783.83011     -1755.08211         7.49411
G27                     14799.20316      -897.73316        37.46416                     96895.62811      -653.66811         7.00011
R09                    -49152.39115      3061.89915        32.49715
R15                     27198.49915     -1698.04915        31.21215
R19                    -58148.82311      4089.98411         8.13711
R17                     40641.45516     -2501.79516        36.79616
R07                      3565.34015      -227.35215        30.08415
J02                     -3106.56015       177.32615        33.41115                    -17056.69211       250.18011         7.00011
J04                      5178.74015      -319.23815        34.96415                     32013.20415      -239.78915        31.26415
C01                      1423.35315       -87.45615        31.28415
C06                     17205.72314     -1078.77614        29.20814
C07                      -469.55914        27.19514        28.99014
C09                      7901.51615      -496.79915        30.29815
C10                     -1858.61614       112.70414        26.69614
C16                     19435.86714     -1213.51514        24.24714
C22                     14214.72813     -1575.57913        20.00213
C27                      4865.34416      -293.07616        36.00116
C28                     46125.05313     -2939.59813        18.26713
C36                    -36942.16014      2236.62514        24.48114
C37                     40218.06112     -2361.45412        16.31012
> 2022 11 18 11 33 26.7049986  0 27                      
G04                     47005.34513     -2682.24813        17.89513                                                                
G07                    -53989.95715      3053.18615        34.36615                                                                
G08                    -25225.79715      1474.97815        32.71215                   -139012.49511      1227.37111         7.00011
G09                     16471.78214      -942.59714        28.11414                     99048.51911      -575.18111         7.00011
G16                     32157.53415     -1785.77515        31.28615                                                                
G18                     35934.60416     -2045.00116        37.60316                                                                
G21                    -62349.54811      3548.91211        11.96111                                                                
G26                     44733.16915     -2541.56915        35.40615                    275598.20211     -1757.95411         7.00011
G27                     15699.97117      -898.56517        43.81717                     97475.43411      -531.77411         7.00011
R09                    -52211.04015      3060.50115        30.00515
R15                     28899.31015     -1700.99115        32.00915
R19                    -62231.58011      4083.80211        10.59111
R17                     43143.76716     -2502.21316        37.85116
R07                      3793.96115      -230.20615        30.22015
J02                     -3283.60215       176.28615        34.52415                    -17259.79211       250.18011         7.00011
J04                      5498.61315      -318.37515        32.51715                     32249.97615      -237.37415        32.27315
C01                      1510.70015       -87.68015        30.71115
C06                     18285.92414     -1079.56914        25.18314
C07                      -498.43614        26.36014        25.50514
C09                      8396.85214      -498.39814        26.88214
C10                     -1970.23914       111.44914        26.27214
C16                     20652.52613     -1216.27213        23.01913
C22                     15791.16213     -1579.29613        20.01513
C27                      5158.50316      -294.16816        36.04416
C28                     49065.57313     -2934.94713        18.93813
C36                    -39364.68813      2329.68613        19.25613
C37                     42579.06412     -2363.10212        17.49812
> 2022 11 18 11 33 27.7049985  0 28                      
G04                     49689.83212     -2683.23912        13.44012                                                                
G07                    -57042.09815      3051.52515        34.62015                                                                
G08                    -26702.08015      1474.86415        33.90215                   -140262.82511      1102.42811        12.21311
G09                     17413.46414      -942.50214        26.81614                     99605.81611      -692.69211         7.00011
G16                     33940.53516     -1784.63816        37.13416                                                                
G18                     37978.51816     -2044.25416        35.70216                                                                
G21                    -65896.53311      3548.62111        11.10011                                                                
G26                     47274.04616     -2541.82016        36.73116                    277337.71911     -1773.61511        12.06811
G27                     16600.28416      -899.09016        39.18116                     97992.95113      -545.14213        18.97913
R09                    -55269.40315      3059.74515        33.00415
R15                     30602.33715     -1704.14715        32.80715
R19                    -66307.52511      4077.61311         7.66211
R17                     45643.71815     -2503.44315        33.63715
R07                      4026.17816      -234.25516        35.51516
J02                     -3460.10616       175.84816        37.08616                    -17526.85411       136.57511         7.00011
J04                      5816.10314      -317.79614        28.60014                     32484.45314      -235.88114        28.04614
C01                      1598.00014       -87.51314        27.52414
C04                       324.27913       -81.83213        21.19813
C06                     19369.16513     -1075.06913        22.69113
C07                      -528.16515        25.78515        30.49415
C09                      8892.78714      -498.68314        25.38814
C10                     -2083.55014       112.32214        27.08414
C16                     21870.21013     -1218.65313        22.92713
C22                     17366.12013     -1567.38513        21.91913
C27                      5453.99315      -296.33015        35.43415
C28                     51996.01512     -2930.48312        13.60612
C36                    -41823.85712      2415.66212        13.92412
C37                     44940.95212     -2362.58912        15.30612
> 2022 11 18 11 33 28.7049985  0 28                      
G04                     52374.98712     -2681.32712        17.27712                                                                
G07                    -60096.73516      3054.51816        35.90616                                                                
G08                    -28181.10015      1475.24515        35.21215                   -141492.23011      1227.35211         7.16111
G09                     18354.87814      -940.84914        26.86114                    100225.16111      -573.67511         7.00011
G16                     35720.71616     -1784.43916        40.75016                                                                
G18                     40024.17016     -2045.97016        36.58316                                                                
G21                    -69441.91212      3546.68312        13.16812                                                                
G26                     49812.87016     -2542.69916        37.73216                    279154.98311     -1767.71011         9.62211
G27                     17498.44116      -897.40516        36.28116                     98536.11612      -545.20312        13.92712
R09                    -58332.86615      3063.12715        34.34515
R15                     32305.65916     -1703.67016        39.09916
R19                    -70378.27311      4075.20311        10.51011
R17                     48149.26416     -2505.57516        36.31716
R07                      4261.72715      -234.31115        35.06215
J02                     -3638.10315       178.20315        33.63015                    -17773.72411       250.16111         7.00011
J04                      6130.63215      -316.78015        29.66415                     32718.01215      -235.67515        30.90315
C01                      1685.38314       -87.58814        24.95314
C04                       400.85814       -78.05614        25.16814
C06                     20449.50214     -1077.38914        24.24814
C07                      -556.71815        27.87815        33.72315
C09                      9389.91814      -498.89814        26.97314
C10                     -2200.23414       114.16114        27.93114
C16                     23087.19013     -1214.70613        22.51613
C22                     18940.99813     -1571.37913        20.72013
C27                      5750.39115      -298.00515        35.38815
C28                     54924.38711     -2926.36411         9.64811
C36                    -44329.62011      2429.67911         8.59211
C37                     47302.77012     -2361.47112        15.00312
> 2022 11 18 11 33 29.7049984  0 28                      
G04                     55054.84713     -2681.33113        21.55613                                                                
G07                    -63156.45216      3058.33716        35.89116                                                                
G08                    -29655.88015      1474.26215        33.24115                   -142671.67711      1227.35211         7.00011
G09                     19297.28215      -938.08715        29.77915                    100776.38111      -692.69211         8.89711
G16                     37506.21916     -1784.34916        38.79916                                                                
G18                     42073.59516     -2047.77516        36.74316                                                                
G21                    -72985.22212      3542.75512        14.11412                                                                
G26                     52357.55115     -2543.71015        34.85015                    280892.37111     -1892.69111         9.28911
G27                     18397.63216      -897.33116        36.79516                     99085.88411      -558.22311        11.12011
R09                    -61399.46615      3064.61715        31.98715
R15                     34009.04415     -1702.61515        33.67415
R19                    -74450.83712      4073.46812        12.82812
R17                     50657.39215     -2507.07815        33.47515
R07                      4498.57315      -234.86015        31.01015
J02                     -3817.31315       179.96315        33.64315                    -17979.02811       250.16111         7.79511
J04                      6443.84515      -316.16615        33.29115                     32952.66215      -236.57615        32.00515
C01                      1773.25014       -87.97014        28.85314
C04                       482.49114       -82.26114        28.17614
C06                     21525.46814     -1074.41914        26.31814
C07                      -585.24415        28.22115        30.70115
C09                      9887.02414      -497.02414        27.69514
C10                     -2318.85515       116.85215        30.90215
C16                     24305.79313     -1217.13613        21.98513
C22                     20510.40113     -1569.51113        19.66213
C27                      6047.10816      -296.85516        39.61716
C28                     57849.39511     -2928.51011         7.00011
C36                    -46867.96311      2488.71811         7.00011
C37                     49664.92612     -2361.01812        12.75912
> 2022 11 18 11 33 30.7049983  0 27                      
G04                     57733.39113     -2678.87513        22.13713                                                                
G07                    -66218.60116      3059.51016        40.92016                                                                
G08                    -31130.24415      1475.20515        31.44315                   -143921.98512      1102.42812        14.67412
G09                     20234.61714      -938.76014        27.17014                    101395.18811      -573.69411         7.00011
G16                     39290.81217     -1784.45017        42.23717                                                                
G18                     44125.06015     -2049.37515        34.42415                                                                
G21                    -76526.10412      3541.52012        15.95112                                                                
G26                     54899.42715     -2541.83615        34.52515                    282704.09711     -1767.71011         7.02411
G27                     19298.40816      -896.66116        37.49616                     99690.58011      -552.14311         7.00011
R09                    -64463.99215      3064.45315        31.75915
R15                     35710.09715     -1700.67615        34.68315
R19                    -78519.01411      4069.12911         7.77711
R17                     53163.52715     -2508.68315        33.54615
R07                      4733.77616      -234.47816        36.90916
J02                     -3997.97915       181.32215        34.29615                    -18249.70311       136.57511         7.00011
J04                      6758.18615      -316.82515        31.96215                     33189.80615      -237.23615        32.37715
C01                      1861.04614       -87.76214        27.38114
C04                       563.49915       -82.52015        31.73315
C06                     22601.06814     -1073.91614        26.85314
C07                      -613.22515        28.72215        31.14215
C09                     10383.59614      -495.59014        29.22714
C10                     -2434.65815       117.81015        29.98815
C16                     25524.55813     -1215.10613        19.60113
C22                     22077.57213     -1565.73913        22.55913
C27                      6342.22416      -294.71616        36.22516
C28                     60771.65211     -2924.16511         7.00011
C37                     52025.54511     -2357.25411        12.16311
> 2022 11 18 11 33 31.7049983  0 27                      
G04                     60411.52013     -2677.24713        19.53213                                                                
G07                    -69277.47616      3058.61716        37.28116                                                                
G08                    -32603.32415      1473.02515        35.37915                   -145151.34211      1227.33311         9.62311
G09                     21171.78614      -938.74814        26.89414                    101945.91212      -692.69212        12.88412
G16                     41077.87116     -1786.13516        37.14016                                                                
G18                     46174.48816     -2050.10016        35.78516                                                                
G21                    -80064.41612      3537.43112        15.09112                                                                
G26                     57437.08115     -2539.20115        33.27615                    284440.97711     -1765.21211        12.02611
G27                     20194.06315      -896.89315        33.76415                    100242.34511      -573.05311        12.44811
R09                    -67528.76015      3064.77615        30.90315
R15                     37410.23016     -1699.55816        35.77516
R19                    -82581.62012      4064.03812        13.60712
R17                     55671.83015     -2508.16115        33.47115
R07                      4967.17016      -232.93616        37.37016
J02                     -4180.87915       181.10115        30.45215                    -18504.45611       249.03711         7.00011
J04                      7074.82115      -316.48115        30.38215                     33425.79914      -237.71614        27.68114
C01                      1948.85214       -87.83814        23.77414
C04                       644.70514       -82.84214        27.56314
C06                     23675.54814     -1072.99014        26.22614
C07                      -642.26016        29.38216        36.16516
C09                     10877.55715      -493.66815        32.99315
C10                     -2550.42415       118.42215        33.19015
C16                     26741.33213     -1214.25513        20.93813
C22                     23643.90212     -1566.53712        16.80212
C27                      6633.73215      -289.45615        29.94515
C28                     63690.50711     -2921.26911         7.00011
C37                     54388.07011     -2363.08211         7.00011
> 2022 11 18 11 33 32.7049982  0 27                      
G04                     63088.24513     -2674.86013        18.63713                                                                
G07                    -72334.76716      3057.94216        37.90316                                                                
G08                    -34076.45315      1472.82815        32.58515                   -146329.00711      1227.33311         7.00011
G09                     22108.80514      -940.50314        27.52414                    102565.61811      -573.71411        10.81011
G16                     42866.76116     -1785.87116        35.53316                                                                
G18                     48220.80215     -2047.67815        31.44515                                                                
G21                    -83600.93312      3536.13912        15.21912                                                                
G26                     59973.96316     -2538.68716        37.91416                    286250.89911     -1767.71011         9.52011
G27                     21090.43216      -895.93616        36.40316                    100850.77011      -569.78811         7.39611
R09                    -70594.49615      3063.99615        30.60315
R15                     39111.45216     -1700.09116        37.77616
R19                    -86642.64911      4065.24811         8.55611
R17                     58179.06115     -2507.90615        32.37615
R07                      5199.50916      -231.97916        36.24616
J02                     -4365.51015       180.66815        35.19915                    -18713.70211       252.25711         7.00011
J04                      7391.73115      -316.57515        30.04515                     33662.96814      -237.43914        27.90214
C01                      2036.84414       -87.87414        28.13414
C04                       726.27814       -83.12414        27.49314
C06                     24749.73414     -1073.85414        24.23514
C07                      -671.21315        28.30815        30.74615
C09                     11368.87114      -493.00914        29.38814
C10                     -2666.79615       118.38815        29.76815
C16                     27958.49413     -1213.25813        22.06513
C22                     25213.09813     -1568.03913        21.50813
C27                      6922.51515      -296.23115        33.61915
C28                     66606.49811     -2917.81711         7.00011
C37                     56752.89012     -2367.67512        12.73312
> 2022 11 18 11 33 33.7049982  0 27                      
G04                     65764.22813     -2676.67713        21.54913                                                                
G07                    -75390.29316      3056.48116        36.58016                                                                
G08                    -35548.11515      1471.06515        32.89315                   -147582.17711      1229.37711         8.11711
G09                     23048.48015      -942.25515        31.37415                    103119.00511      -692.69211        11.84611
G16                     44652.58616     -1783.86916        38.41116                                                                
G18                     50265.43815     -2045.84615        30.29915                                                                
G21                    -87139.64612      3540.05712        15.95112                                                                
G26                     62511.70215     -2537.01215        32.79915                    287995.20211     -1766.16411         9.27911
G27                     21987.23716      -896.63116        35.98216                    101411.71512      -576.36612        13.62312
R09                    -73657.45615      3062.46815        32.01715
R15                     40811.64816     -1700.10416        35.89616
R19                    -90704.48311      4062.90411         7.00011
R17                     60685.30316     -2506.40216        38.09416
R07                      5432.01016      -232.91316        37.26616
J02                     -4546.17815       181.26215        32.73615                    -18991.62411       136.57511         7.00011
J04                      7706.48115      -314.90015        34.09215                     33901.50614      -236.89314        27.20514
C01                      2124.69314       -87.87214        26.72414
C04                       807.78114       -83.03614        24.97314
C06                     25823.47614     -1072.75814        24.65214
C07                      -699.26514        29.48414        28.39414
C09                     11860.57415      -493.22515        30.86415
C10                     -2783.12415       118.66215        30.85815
C16                     29172.71414     -1213.72014        24.09914
C22                     26782.98013     -1568.68313        19.33213
C27                      7213.18016      -292.88316        38.71516
C28                     69517.65211     -2915.11811         7.00011
C37                     59119.27712     -2367.48912        12.51312
> 2022 11 18 11 33 34.7049981  0 26                      
G04                     68439.58913     -2676.68913        20.46913                                                                
G07                    -78449.36216      3056.06516        39.86416                                                                
G08                    -37019.11515      1470.08115        33.88815                   -148816.65911      1235.55911        12.44911
G09                     23989.61614      -943.25414        28.96714                    103736.50211      -578.36311         7.00011
G16                     46433.56316     -1784.01416        37.47016                                                                
G18                     52310.63515     -2045.80215        31.58215                                                                
G21                    -90680.03512      3542.61112        17.24812                                                                
G26                     65050.74416     -2539.80316        38.16716                    289810.72811     -1767.82411         7.00011
G27                     22885.43816      -898.10516        38.64816                    102030.46011      -577.02911         8.57211
R09                    -76717.84415      3060.39915        30.72815
R15                     42512.44016     -1701.77016        37.76416
R17                     63191.36415     -2506.52115        32.99315
R07                      5666.64716      -234.45116        39.62516
J02                     -4729.89215       181.45815        33.69215                    -19249.63112       257.21212        12.96112
J04                      8020.60815      -314.63715        32.00815                     34137.71714      -235.82214        29.46614
C01                      2212.43813       -87.90513        23.08913
C04                       889.52013       -83.24713        23.07913
C06                     26894.28914     -1073.82914        26.50714
C07                      -729.05815        30.32515        33.57315
C09                     12355.24215      -494.27615        31.32915
C10                     -2900.76915       118.17215        32.58315
C16                     30385.88214     -1213.02914        24.16614
C22                     28353.33613     -1570.18813        20.14113
C27                      7510.97315      -297.88815        35.26215
C28                     72423.15411     -2910.98711         7.00011
C37                     61486.68312     -2365.70512        15.63512
> 2022 11 18 11 33 35.7049980  0 25                      
G04                     71113.13113     -2677.47913        20.38513                                                                
G07                    -81506.05416      3059.52416        39.58916                                                                
G08                    -38490.98116      1471.05216        35.59316                   -149998.31211      1232.55411         8.03911
G09                     24930.13615      -941.77315        30.41615                    104287.10511      -692.69211         7.00011
G16                     48214.02716     -1784.04616        40.23016                                                                
G18                     54358.27915     -2046.89215        31.67815                                                                
G26                     67594.79316     -2544.05416        39.15516                    291560.98612     -1773.28712        14.70012
G27                     23785.02616      -900.00016        37.14016                    102599.17911      -585.41911        10.53111
R09                    -79777.22515      3061.29115        30.23715
R15                     44215.18516     -1704.34416        37.00516
R17                     65698.37415     -2506.40315        32.85215
R07                      5905.32216      -233.64616        36.96816
J02                     -4913.65215       181.07315        34.57015                    -19458.67211       257.21211         7.90911
J04                      8336.70815      -314.68115        32.18415                     34372.77914      -236.12314        28.93214
C01                      2300.57513       -88.26613        23.41213
C04                       971.27214       -83.01314        24.22514
C06                     27967.57614     -1075.48614        28.08614
C07                      -759.55815        31.64115        33.21315
C09                     12850.69015      -494.87115        31.72015
C10                     -3019.40215       118.25515        33.33415
C16                     31596.61413     -1210.81013        22.12013
C22                     29923.41513     -1569.76713        22.82013
C27                      7809.65016      -299.94316        37.63116
C28                     75322.50911     -2894.74011        10.52611
C37                     63854.31111     -2365.63611        11.18611
> 2022 11 18 11 33 36.7049980  0 25                      
G04                     73791.07913     -2677.82613        20.20213                                                                
G07                    -84565.35716      3061.60016        37.97016                                                                
G08                    -39962.49915      1471.19115        35.15215                   -151255.48011      1226.89111        11.07711
G09                     25871.58014      -941.66414        27.43914                    104905.36411      -576.01911         8.28911
G16                     49998.33216     -1785.38316        38.26016                                                                
G18                     56405.89215     -2047.43215        34.17515                                                                
G26                     70143.55916     -2545.77116        38.26816                    293380.73211     -1772.55011         9.64911
G27                     24687.42216      -901.93516        38.91316                    103214.65011      -584.19411        10.48811
R09                    -82839.40615      3065.55715        33.00615
R15                     45918.94116     -1704.02216        36.19116
R17                     68207.10315     -2506.75115        34.06815
R07                      6136.79015      -232.73015        35.06915
J02                     -5093.55416       180.11116        36.66516                    -19735.52712       136.57512        15.41312
J04                      8654.76115      -316.67015        34.15515                     34608.79515      -237.70415        30.78615
C01                      2388.57513       -88.05813        21.54213
C04                      1053.19014       -83.37114        28.18914
C06                     29045.13814     -1076.17614        27.70114
C07                      -793.76715        34.55915        33.27615
C09                     13343.50214      -495.29214        28.83214
C10                     -3139.88415       119.55515        31.24815
C16                     32805.73413     -1211.30313        22.85813
C22                     31493.11013     -1568.72413        22.58913
C27                      8108.85416      -299.71916        35.96516
C28                     78213.83211     -2887.57911         7.00011
C37                     66222.18011     -2362.50111         7.00011
> 2022 11 18 11 33 37.7049980  0 25                      
G04                     76471.30813     -2678.99313        19.21313                                                                
G07                    -87627.43316      3062.26616        39.79316                                                                
G08                    -41432.90115      1471.93315        32.16915                   -152486.22011      1236.10711         7.00011
G09                     26817.02314      -942.83814        26.84714                    105465.31411      -692.69211         8.78911
G16                     51784.20016     -1786.02316        35.98416                                                                
G18                     58453.70415     -2050.51915        34.16015                                                                
G26                     72688.92016     -2545.91816        37.15416                    295129.73911     -1772.55011         7.00011
G27                     25589.89616      -902.58116        39.48516                    103785.01911      -584.19411         7.00011
R09                    -85905.43115      3068.74315        33.83815
R15                     47623.90416     -1705.37816        36.21316
R17                     70718.02115     -2508.60515        34.87915
R07                      6367.54715      -232.62315        33.72215
J02                     -5270.53016       177.30316        35.64716                    -19998.33111       266.44611        11.36111
J04                      8972.46815      -317.53015        33.05515                     34846.06315      -236.93115        34.16315
C01                      2476.41714       -87.88714        23.91914
C04                      1135.19414       -83.82414        27.64114
C06                     30125.00814     -1075.36514        27.87014
C07                      -831.26815        36.68715        29.68815
C09                     13837.81014      -496.59914        26.86714
C10                     -3258.69514       119.67014        28.40014
C16                     34013.90713     -1210.29013        23.24913
C22                     33061.46513     -1566.95913        20.10413
C27                      8408.70016      -299.38416        35.80216
C28                     81096.09811     -2879.60911         7.00011
C37                     68582.88911     -2361.18811         7.00011
> 2022 11 18 11 33 38.7049978  0 25                      
G04                     79154.60713     -2680.39613        18.87813                                                                
G07                    -90689.99716      3060.15916        35.80616                                                                
G08                    -42902.29915      1469.95015        31.37915                   -153666.49911      1230.42011         7.00011
G09                     27763.83314      -944.82514        29.15314                    106087.51811      -580.23011         9.44111
G16                     53570.44416     -1785.21916        38.98416                                                                
G18                     60505.26315     -2050.36315        34.25015                                                                
G26                     75230.97015     -2542.57015        33.81115                    296950.55611     -1772.56911         7.00011
G27                     26491.25416      -901.61016        41.14016                    104401.69011      -584.21311         7.00011
R09                    -88974.40216      3069.29716        36.06616
R15                     49328.96215     -1706.06815        33.43015
R17                     73231.41616     -2510.92716        37.78716
R07                      6598.81815      -233.04315        31.51415
J02                     -5446.53716       178.57516        38.43416                    -20213.14411       261.40411         7.00011
J04                      9288.26215      -316.31015        33.61715                     35085.36215      -237.71415        33.84315
C01                      2564.57014       -88.02214        23.58414
C04                      1217.83215       -84.11915        31.38315
C06                     31200.01114     -1075.50014        25.84014
C07                      -869.90314        33.56214        25.83914
C09                     14335.22614      -496.91514        24.52414
C10                     -3376.49614       119.90614        25.49314
C16                     35220.36814     -1209.88214        24.90114
C22                     34630.44514     -1566.70614        28.23314
C27                      8706.19816      -298.70516        37.54316
C28                     83971.50411     -2872.57611         7.00011
C37                     70941.38811     -2357.50111         9.79311
> 2022 11 18 11 33 39.7049978  0 25                      
G04                     81834.88713     -2679.77913        20.67913                                                                
G07                    -93750.05517      3056.67717        42.52917                                                                
G08                    -44372.80515      1471.13015        31.67615                   -154928.70111      1102.42811         7.00011
G09                     28711.41515      -945.71015        30.38715                    106639.70511      -692.69211        10.09311
G16                     55354.43416     -1783.64516        39.75116                                                                
G18                     62557.88515     -2048.45115        32.43915                                                                
G26                     77768.64916     -2538.70316        35.51516                    298700.74011     -1772.56911         7.00011
G27                     27391.98416      -901.33416        38.09016                    104968.59111      -663.42411        10.69411
R09                    -92044.53915      3068.82915        34.46415
R15                     51031.48315     -1703.98915        33.63815
R17                     75744.66016     -2510.59316        39.69316
R07                      6832.24815      -234.67415        31.49215
J02                     -5625.16415       181.96115        35.00015                    -20502.36411       261.09611        12.19111
J04                      9600.84815      -315.60915        34.21815                     35325.07915      -237.71315        30.72515
C01                      2652.59113       -87.91513        21.35813
C04                      1300.32114       -83.72614        28.83314
C06                     32274.01614     -1074.20314        23.65514
C07                      -907.72115        30.01215        29.53315
C09                     14832.39914      -496.44614        24.54314
C10                     -3493.45414       117.73214        26.32614
C16                     36429.50013     -1211.20713        21.58913
C22                     36199.41514     -1567.15514        26.84114
C27                      9001.23216      -297.19316        38.74916
C28                     86841.18611     -2876.16311         7.00011
C37                     73300.58312     -2361.08112        15.21612
> 2022 11 18 11 33 40.7049977  0 25                      
G04                     84513.88913     -2678.67213        18.93013                                                                
G07                    -96808.20217      3055.48217        42.64217                                                                
G08                    -45843.17015      1470.09415        32.45115                   -156164.56311      1227.40911         7.00011
G09                     29656.81915      -946.04215        32.84715                    107257.31011      -574.89511         9.65811
G16                     57136.89316     -1782.61416        39.36816                                                                
G18                     64604.83315     -2047.45215        31.70315                                                                
G26                     80304.72415     -2534.33115        34.65915                    300518.72511     -1772.58811         7.00011
G27                     28292.21916      -899.98216        37.60816                    105579.47211      -579.88711         8.50811
R09                    -95114.05715      3067.36015        33.38715
R15                     52731.65215     -1700.13315        34.96015
R17                     78255.69516     -2510.19816        36.89616
R07                      7070.57716      -238.86516        35.84716
J02                     -5810.64215       186.75115        33.70315                    -20764.63411       261.07311         7.14011
J04                      9914.62515      -316.42715        30.74415                     35563.28015      -235.63315        30.45315
C01                      2740.25112       -87.02412        16.30612
C04                      1382.74114       -83.66014        24.45014
C06                     33345.35513     -1071.68213        21.38413
C07                      -941.07315        31.14315        30.72815
C09                     15326.95514      -494.10314        27.25514
C10                     -3610.49215       117.98415        30.16015
C16                     37641.22913     -1211.63813        20.46413
C22                     37767.82613     -1567.07113        23.13513
C27                      9297.45816      -295.87016        39.54316
C28                     89704.90111     -2869.31811         7.00011
C37                     75658.95812     -2360.57812        17.17812
> 2022 11 18 11 33 41.7049977  0 25                      
G04                     87193.37913     -2679.02513        18.78513                                                                
G07                    -99866.10116      3056.51216        37.89216                                                                
G08                    -47313.15515      1469.98815        33.90915                   -157344.21711      1227.40911         7.00011
G09                     30601.93216      -945.51216        36.07216                    107800.91911      -564.30911         7.46811
G16                     58915.99716     -1782.92116        36.68016                                                                
G18                     66649.06915     -2046.78415        33.86715                                                                
G26                     82839.85615     -2540.33215        32.96115                    302271.92612     -1772.58812        14.51712
G27                     29192.43216      -899.65216        36.25016                    106144.94711      -663.42411         7.00011
R09                    -98180.22416      3066.08416        36.32616
R15                     54431.80016     -1699.09816        36.58216
R17                     80762.80015     -2509.32015        33.09615
R07                      7311.14116      -240.12016        37.02216
J02                     -5997.16515       187.84215        32.48415                    -20978.09211       253.62911         7.00011
J04                     10228.25814      -316.01714        26.98514                     35797.66514      -234.13914        29.26614
C01                      2827.87014       -87.06314        23.50314
C04                      1464.99813       -83.29113        20.83213
C06                     34415.24814     -1070.64414        26.34514
C07                      -968.34516        29.42216        36.63116
C09                     15819.77814      -493.62914        25.45914
C10                     -3728.26315       117.97915        29.62315
C16                     38854.93914     -1213.28614        25.07614
C22                     39336.63114     -1568.21514        26.52414
C27                      9592.08816      -296.61316        36.39616
C28                     92563.32311     -2854.52411         7.00011
C37                     78019.92312     -2363.51912        13.11512
> 2022 11 18 11 33 42.7049976  0 24                      
G04                     89874.26613     -2679.98913        22.04713                                                                
G07                   -102925.08215      3056.86215        33.41315                                                                
G08                    -48783.38616      1470.59416        38.80516                   -158595.02312      1224.13212        14.77712
G09                     31550.80716      -944.39416        38.20216                    108419.01311      -567.71111         7.00011
