     3.03           OBSERVATION DATA    M                   RINEX VERSION / TYPE
GnssLogger          Xiaomi 10           20221118 104444 UTC PGM / RUN BY / DATE
Google GnssLogger                                           MARKER NAME
G    8 C1C L1C D1C S1C C5Q L5Q D5Q S5Q                      SYS / # / OBS TYPES
R    4 C1C L1C D1C S1C                                      SYS / # / OBS TYPES
J    8 C1C L1C D1C S1C C5Q L5Q D5Q S5Q                      SYS / # / OBS TYPES
C    4 C2C L2C D2C S2C                                      SYS / # / OBS TYPES
E    8 C1C L1C D1C S1C C5Q L5Q D5Q S5Q                      SYS / # / OBS TYPES
  2022    11    18    10    44   44.0000000     GPS         TIME OF FIRST OBS
 12 R05  1 R06 -4 R101  1 R102  2 R103  3 R105  5 R14 -7 R15  0 GLONASS SLOT / FRQ #
    R17  4 R24  2 R93 -7 R98 -2                             GLONASS SLOT / FRQ #
                                                            END OF HEADER
> 2022 11 18 10 44 44.0000842  0 38                      
G04  21434713.75615     18143.37315     -1152.16215        31.39315                                                                
G07  25218695.66016   -328336.51416      3127.93716        38.27216                                                                
G08  21863388.49116   -278147.32316      2914.17016        37.82816  21863390.59015   -369003.51915      2177.53415        32.93615
G09  22617032.85415    -81917.98315       945.27015        35.47715  22617035.85215    -87065.95115       707.69415        33.40715
G16  20536331.69316    103916.14116     -1027.56616        37.75916                                                                
G18  23975408.07015      2284.38615      -341.91815        32.52715                                                                
G26  21732342.91216    263767.51716     -2163.23216        36.28516  21732346.51015    553144.43015     -1615.65715        34.49215
G27  20041619.27616   -100557.41416      1012.89116        39.72716  20041621.37416   -150182.10416       758.17816        36.50516
G31  24002857.66714    855873.00614     -3135.84014        27.23114                                                                
R14                    686496.28916     -2651.55216        36.62316
R06                      7733.57215     -1144.50315        29.75415
R15                     82084.91716      -759.84916        37.46016
R05                    243007.12713     -4002.02713        21.39113
R24                    226130.20715     -3403.32715        33.55615
R103                    -30135.50512      4461.96212        14.95712
R17                     -9053.56915        48.36615        32.86015
R105                   -222360.86116      2057.21816        39.02316
J02  39201753.39116      4116.58416       -48.54316        37.28316  39201755.48915      4839.30715       -36.33715        32.54815
J04  37541708.11614      9880.28614       -89.61214        28.85714  37541713.51313     14612.19613       -67.78813        22.75413
J02                      2482.14412      -367.18712        16.02012                      2064.57111      -275.54311        11.50411
C01                     -2682.37913       -86.49613        19.94813
C02                       881.13113       -83.70513        21.71613
C03                         2.17024       -85.85424        24.84124
C04                         1.06921       -70.24421         7.00021
C05                         2.12122      -122.92722        13.11322
C06  35895540.83415      8063.44415      -603.22715        33.61715
C07  36489231.83016     -1931.14616       149.21816        37.21416
C09  36227768.13815       437.71315       -37.03515        35.22515
C10                       -11.30423       236.09723        20.51223
C16                      3323.76515      -753.54115        35.38315
C19                       107.48221     -2249.75421         7.00021
C20                        61.94624     -2815.60724        24.10724
C22                        12.34626      -279.02426        36.77326
C27  22327324.51515    -16303.88815      1325.35615        29.75315
C28                        35.59121     -1621.46221         7.00021
C36  25037935.19815     -8921.39315      2313.71215        35.21515
C37  23654583.97215     22211.94515     -1816.29515        33.79415
E24  23976809.30016     -3132.92716       191.87016        39.62716  23976808.10115     -8324.41715       145.81215        34.11815
> 2022 11 18 10 44 45.0000842  0 38                      
G04  21434932.90514     19299.29214     -1154.02414        29.09114                                                                
G07  25218097.57416   -331465.69116      3128.93016        41.14916                                                                
G08  21862830.57716   -281062.31516      2914.67216        41.05816  21862837.17316   -371180.81516      2176.87216        40.64116
G09  22616852.07916    -82864.84916       945.90416        40.64816  22616858.07516    -87773.34716       707.19016        35.56816
G16  20536524.76016    104943.92716     -1028.21716        39.64016                                                                
G18  23975471.92615      2629.53215      -345.51515        33.30415                                                                
G26  21732758.12516    265930.29416     -2162.70716        35.57016  21732756.32616    554759.87816     -1616.07516        35.77516
G27  20041422.01216   -101569.87216      1012.03416        38.94416  20041427.40916   -150940.97416       758.60516        38.04416
G31  24003446.16015    859010.00015     -3135.38615        30.78015                                                                
R14                    689147.43516     -2652.94616        38.83416
R06                      8877.46914     -1145.52114        29.12014
R15                     82843.94316      -759.64316        41.00716
R05                    247008.55113     -4003.61813        19.88513
R24                    229533.68517     -3404.43617        43.53717
R103                    -34597.46712      4461.96212        14.09712
R17                     -9099.00316        44.63916        36.41316
R105                   -224421.83516      2057.89616        39.31016
J02  39201758.78716      4164.96116       -49.44816        39.60916  39201764.48315      4874.64015       -36.23715        32.75915
J04  37541724.00515      9973.79315       -89.23015        30.53815  37541731.50014     14680.60314       -68.91714        26.50314
J02  37480630.20013      2847.01413      -363.50713        21.91513                      2324.32011      -263.42411         7.00011
C01  37574823.49114     -2596.60114       -85.75314        26.34514
C02                       959.48513       -83.61213        19.08913
C03                         2.16724       -85.85424        28.99724
C04                         1.06821       -72.19521         7.00021
C05                         2.11621      -122.92721         7.00021
C06  35895657.45315      8667.41015      -604.03115        35.32915
C07  36489199.15315     -2081.80815       150.18615        35.35615
C09  36227756.14616       476.40916       -39.37016        35.87616
C10                       -11.26724       234.14624        24.11224
C16                      4073.19515      -752.88015        35.16115
C19                       107.42221     -2251.70521         7.00021
C20                        61.83624     -2815.60724        26.12024
C22                        12.35821      -280.97521         7.00021
C27  22327070.89016    -17629.13816      1324.08216        36.46316
C28                        35.53125     -1625.36425        29.62625
C36  25037478.31416    -11240.17716      2315.09816        36.96116
C37  23654929.63315     24028.50215     -1818.63915        34.71315
E24  23976761.63316     -3322.08216       190.68716        38.99316  23976769.12816     -8470.98916       146.26316        35.98316
> 2022 11 18 10 44 46.0000841  0 38                      
G04  21435124.47215     20455.93015     -1153.56715        30.14015                                                                
G07  25217474.60616   -334596.80616      3130.61716        39.10016                                                                
G08  21862244.48316   -283978.16016      2915.46216        38.76716  21862251.37816   -373358.90616      2177.90616        40.18416
G09  22616643.72316    -83812.05316       946.84716        40.04616  22616648.52016    -88480.82016       706.76416        35.94116
G16  20536691.44416    105971.53316     -1028.07916        38.38516                                                                
G18  23975513.59715      2974.15915      -345.16115        33.15415                                                                
G26  21733137.96215    268091.61715     -2161.60715        35.30515  21733139.76016    556374.19616     -1613.82916        36.47716
G27  20041202.56415   -102583.20115      1013.21915        34.58415  20041206.46116   -151698.00116       756.61116        36.73616
G31  24004009.77014    862146.23014     -3135.60014        28.35814                                                                
R14                    691798.15716     -2651.18216        38.80516
R06                     10019.38014     -1145.79014        27.53514
R15                     83601.92916      -758.02216        37.52616
R05                    251013.63013     -4007.18713        18.27613
R24                    232936.96816     -3403.86316        41.01016
R103                    -39059.42812      4461.96212        13.50112
R17                     -9143.32516        44.02616        38.45016
R105                   -226480.91517      2058.87817        42.71617
J02  39201741.39915      4212.53615       -48.99515        35.09515  39201746.49615      4909.96215       -36.17615        30.07715
J04  37541713.51314     10062.89314       -89.18214        29.10414  37541720.70814     14750.77414       -70.12914        24.99114
J02  37480660.17913      3208.22713      -358.51013        20.69913                      2589.39111      -259.36611         7.00011
C01  37574816.89614     -2510.78314       -85.74514        24.54114
C02                      1037.06012       -83.64212        13.75712
C03                         2.17325       -87.80525        31.87025
C04                         1.07221       -74.14621         7.00021
C05                         2.11921      -122.92721         7.00021
C06  35895746.19215      9270.45415      -603.63515        34.40515
C07  36489142.49215     -2235.24415       153.56515        33.28015
C09  36227748.95115       518.47415       -42.91415        31.21815
C10                       -11.24624       232.19524        23.68024
C16                      4824.50416      -751.81316        35.89516
C19                       107.47422     -2251.70522        16.97922
C20                        61.90224     -2815.60724        23.86224
C22                        12.38825      -282.92725        33.92125
C27  22326786.68716    -18954.47916      1324.06716        36.79416
C28                        35.57125     -1627.31625        35.43325
C36  25037010.63816    -13557.57816      2317.01916        36.08016
C37  23655249.81115     25843.37315     -1816.43915        32.82815
E24  23976698.67716     -3511.81716       190.44416        38.58416  23976701.07515     -8618.10315       147.04015        33.43415
> 2022 11 18 10 44 47.0000841  0 38                      
G04  21435345.11915     21612.52815     -1154.49115        29.58315                                                                
G07  25216879.51816   -337728.57316      3131.49416        39.71916                                                                
G08  21861690.76617   -286894.96717      2916.78117        42.39317  21861695.86316   -375537.63016      2178.97716        36.27216
G09  22616461.74915    -84762.84415       947.83615        32.99815  22616466.84616    -89187.74816       706.17216        37.08216
G16  20536887.50916    106997.98216     -1027.03216        38.69916                                                                
G18  23975578.05316      3317.57416      -343.22316        36.05116                                                                
G26  21733550.77615    270252.18515     -2159.69715        34.42015  21733547.77815    557988.30715     -1614.42315        35.00415
G27  20041010.09716   -103596.62316      1014.06916        37.02616  20041011.59615   -152455.89215       757.17015        35.38515
G31  24004606.65715    865280.57715     -3134.70715        29.57515                                                                
R14                    694444.97916     -2647.49016        36.65716
R06                     11165.35614     -1146.29614        28.14014
R15                     84358.46416      -756.72116        39.74616
R05                    255020.66213     -4009.04613        18.74313
R24                    236339.07917     -3402.15717        43.02617
R103                    -43520.62912      4461.98512        12.64112
R17                     -9187.60616        43.45116        37.29716
R105                   -228540.52116      2059.59816        39.98516
J02  39201746.79515      4257.04615       -46.25115        32.97115  39201754.29014      4944.68014       -36.09514        27.26814
J04  37541728.50215     10150.88715       -88.05615        32.49815  37541732.39914     14821.61314       -69.05814        26.54314
J02  37480728.83113      3566.12213      -354.25013        21.49513                      2859.33613      -273.54813        19.61413
C01  37574838.48114     -2425.01614       -86.05414        25.44014
C02                      1113.64412       -83.95512        15.28012
C03                         2.17524       -87.80524        29.47224
C04                         1.07321       -74.14621         7.00021
C05                         2.12221      -122.92721         7.00021
C06  35895863.41115      9872.39115      -602.67115        33.63515
C07  36489113.11315     -2389.47515       155.98915        30.99215
C09  36227755.84715       561.73215       -36.13915        30.37715
C10                       -11.26423       234.14623        23.20623
C16                      5574.76715      -750.25115        33.32915
C19                       107.38721     -2251.70521         9.40821
C20                        61.96822     -2815.60722        15.30122
C22                        12.39525      -282.92725        32.88825
C27  22326529.76516    -20279.83616      1324.10116        35.67916
C28                        35.61121     -1629.26721         7.00021
C36  25036556.75216    -15881.33416      2319.64916        40.62616
C37  23655596.67115     27654.29115     -1812.46015        34.51215
E24  23976664.20116     -3704.73616       191.01516        35.95916  23976663.60115     -8765.83315       147.22515        29.59015
> 2022 11 18 10 44 48.0000840  0 38                      
G04  21435533.38914     22768.95314     -1154.22114        28.87214                                                                
G07  25216256.84916   -340861.46116      3133.11216        39.76616                                                                
G08  21861107.07017   -289812.58917      2918.19117        42.63817  21861111.86717   -377717.62717      2180.63017        41.50917
G09  22616253.09416    -85711.16916       948.76716        40.72216  22616255.79216    -89895.18316       707.12016        36.97916
G16  20537052.69415    108023.75015     -1025.48815        34.88215                                                                
G18  23975616.12615      3660.02815      -340.86715        32.29415                                                                
G26  21733932.11215    272409.36815     -2156.10515        29.82915  21733929.11415    559600.60915     -1615.59415        31.98215
G27  20040789.75016   -104611.31916      1015.19916        36.72416  20040790.94915   -153212.92815       758.13615        33.93915
G31  24005170.56615    868412.64415     -3134.51315        29.82615                                                                
R14                    697088.04116     -2646.23116        39.22816
R06                     12311.64114     -1147.57214        25.18714
R15                     85113.65916      -754.27116        40.42516
R05                    259027.48613     -4009.65413        18.09013
R24                    239737.81516     -3401.49116        39.25616
R103                    -47981.40312      4460.98712        12.95512
R17                     -9232.06016        44.69416        37.34516
R105                   -230602.16916      2060.90716        40.20516
J02  39201728.20816      4300.27816       -43.87616        35.69116  39201731.20614      4979.16614       -35.44814        28.74014
J04  37541715.61115     10237.84915       -86.59515        32.43215  37541718.00914     14890.80814       -66.89014        27.98414
J02                      3917.76013      -350.99713        19.26813                      3125.88113      -268.42713        18.10913
C01  37574822.59214     -2339.03514       -85.95614        26.25814
C02                      1189.63811       -83.80211         9.94811
C03                         2.16724       -85.85424        26.57324
C04                         1.06922       -72.19522        15.74222
C05                         2.11522      -120.97522        14.31922
C06  35895953.34915     10472.81315      -600.04615        30.01515
C07  36489054.05415     -2544.13615       154.80615        34.67215
C09  36227730.66416       606.38316       -37.79916        35.76216
C10                       -11.26924       234.14624        24.15124
C16                      6323.55515      -749.23115        34.77515
C19                       107.41221     -2249.75421         7.00021
C20                        61.83623     -2813.65623        19.46523
C22                        12.36121      -280.97521         7.00021
C27  22326258.15316    -21605.28316      1325.45116        36.35816
C28                        35.54525     -1627.31625        30.11625
C36  25036095.37217    -18202.05317      2321.17317        42.89917
C37  23655918.34916     29464.21216     -1810.50016        37.24516
E24  23976590.75216     -3902.29916       192.47116        37.40616  23976600.34515     -8914.27415       147.88015        29.95515
> 2022 11 18 10 44 49.0000839  0 38                      
G04  21435726.15615     23923.51615     -1154.51115        32.07815                                                                
G07  25215631.48216   -343998.49016      3134.23316        40.32516                                                                
G08  21860523.37516   -292731.28316      2918.79316        39.69716  21860524.57416   -379898.31716      2180.92816        38.23416
G09  22616044.43816    -86659.08416       949.00916        36.90016  22616044.73816    -90603.10916       708.04016        36.21016
G16  20537219.67916    109047.40016     -1025.53816        37.40316                                                                
G18  23975651.80215      4004.63415      -342.76915        30.67115                                                                
G26  21734313.44814    274565.94514     -2154.89114        26.66514  21734315.24715    561213.51615     -1615.21415        32.90815
G27  20040570.30216   -105629.19316      1015.06716        36.52816  20040567.60415   -153971.35115       758.15115        31.82215
G31  24005735.37515    871545.22415     -3134.28115        29.90215                                                                
R14                    699733.43116     -2645.22716        37.72716
R06                     13458.68014     -1147.64914        26.50614
R15                     85865.85915      -751.51715        33.83815
R05                    263033.52113     -4009.50813        17.93113
R24                    243139.87916     -3401.76916        40.70016
R103                    -52444.69312      4460.01412        12.72612
R17                     -9279.43415        48.64715        29.50815
R105                   -232662.52317      2060.82517        42.12017
J02  39201707.52315      4345.39615       -43.90215        33.64415  39201709.62114      5013.00514       -34.54814        27.80914
J04  37541704.81915     10321.96115       -84.03015        32.67415  37541704.81914     14955.12214       -64.05014        26.79214
J02                      4266.72813      -351.15213        18.07313                      3391.90413      -269.21713        17.98013
C01  37574811.79914     -2252.91714       -85.35214        25.28514
C02                      1264.86211       -84.30011        11.87211
C03                         2.16624       -83.90224        29.29424
C04                         1.06821       -70.24421         7.00021
C05                         2.11821      -120.97521         7.00021
C06  35896035.79215     11072.49115      -598.52615        31.69015
C07  36488995.59415     -2699.12015       154.97315        33.43715
C09  36227706.38115       639.36715       -31.43915        33.69415
C10                       -11.30223       236.09723        22.79623
C16                      7072.57315      -748.64915        32.24215
C19                       107.46523     -2249.75423        18.56723
C20                        61.90223     -2813.65623        22.97723
C22                        12.36726      -280.97526        39.18926
C27  22325971.25215    -22928.51915      1326.23515        30.58215
C28                        35.58221     -1625.36421         7.00021
C36  25035613.60516    -20526.47516      2322.03216        39.04716
C37  23656234.92915     31275.45615     -1808.61415        34.50615
E24  23976531.09316     -4105.42416       194.22716        38.74516  23976532.29215     -9062.64015       148.53115        32.49515
> 2022 11 18 10 44 50.0000839  0 38                      
G04  21435945.60415     25076.77215     -1154.66115        30.70215                                                                
G07  25215032.49616   -347133.22216      3134.64416        38.98716                                                                
G08  21859967.85916   -295651.00616      2919.86816        35.81816  21859971.75616   -382078.95016      2181.17116        35.61916
G09  22615860.36616    -87607.48816       948.31816        39.64416  22615864.26316    -91312.28316       709.62716        39.86116
G16  20537411.24615    110072.53915     -1026.22015        33.05815                                                                
G18  23975718.95515      4353.36015      -344.88515        30.55915                                                                
G26  21734724.16415    276723.22215     -2155.86415        31.97715  21734727.76115    562826.89315     -1614.16315        31.76815
G27  20040374.83715   -106643.40515      1015.38515        33.70915  20040374.23816   -154729.07816       758.10616        36.50816
G31  24006333.16114    874679.60814     -3133.69614        28.59814                                                                
R14                    702376.70915     -2643.25815        35.49615
R06                     14604.94014     -1147.64114        26.89414
R15                     86615.99916      -754.12416        36.63916
R05                    267043.06412     -4009.19712        16.87512
R24                    246542.25915     -3401.59415        34.49515
R103                    -56912.20212      4468.32712        12.75012
R17                     -9330.05615        49.95115        32.69915
R105                   -234722.29816      2060.11516        38.07216
J02  39201715.01716      4388.62316       -43.07616        36.09816  39201718.61514      5043.06214       -33.00614        26.30714
J04  37541716.51015     10405.71415       -83.75215        34.34115  37541718.90915     15018.55815       -63.22715        29.78215
J02                      4619.28513      -355.00913        19.76113                      3657.41413      -266.01613        19.26013
C01  37574826.48915     -2167.00515       -86.01615        30.32815
C02                      1339.06411       -84.35811         7.00011
C03                         2.16425       -81.95125        31.69225
C04                         1.06821       -68.29321         7.00021
C05                         2.11921      -119.02421         7.00021
C06  35896148.81315     11671.21315      -597.71015        31.66315
C07  36488961.71716     -2854.64716       155.19216        38.80816
C09  36227710.57816       672.59116       -30.54316        39.32016
C10                       -11.32024       238.04924        25.55024
C16                      7820.85616      -748.26116        36.01516
C19                       107.35021     -2247.80321        12.12921
C20                        61.75021     -2809.75321         7.00021
C22                        12.35621      -280.97521         7.00021
C27  22325704.73616    -24254.24216      1325.80816        37.13016
C28                        35.62025     -1625.36425        31.14325
C36  25035165.71517    -22850.74117      2321.93417        43.22617
C37  23656588.98415     33085.00615     -1807.04015        31.32615
E24  23976485.82416     -4302.06816       196.45516        37.64716  23976492.12015     -9211.20315       149.72415        31.15815
> 2022 11 18 10 44 51.0000838  0 38                      
G04  21436133.57415     26229.13415     -1152.99515        30.41515                                                                
G07  25214403.23216   -350269.22516      3136.18816        37.67716                                                                
G08  21859385.36215   -298570.58015      2920.39615        31.93915  21859382.36415   -384261.48915      2181.99915        31.05415
G09  22615646.61417    -88556.16017       948.05917        42.25317  22615655.00817    -92021.60517       709.81917        41.54117
G16  20537576.43216    111097.71416     -1025.32516        37.27216                                                                
G18  23975757.32915      4695.83615      -343.58615        31.48115                                                                
G26  21735091.70916    278881.91616     -2158.02116        37.84616  21735102.50215    564440.15315     -1612.57215        31.03015
G27  20040149.69316   -107657.90316      1014.70016        39.43216  20040149.39316   -155486.72916       758.31116        35.86116
G31  24006903.66614    877813.17014     -3130.82314        27.69414                                                                
R14                    705018.36916     -2645.76016        37.16916
R06                     15750.17615     -1145.69815        30.03115
R15                     87371.53716      -755.63316        37.72016
R05                    271052.33213     -4007.02213        17.66113
R24                    249944.68215     -3403.02515        34.72715
R103                    -61381.36411      4467.10311        12.27411
R17                     -9380.60116        49.06216        35.73116
R105                   -236782.40815      2060.66315        35.47315
J02  39201692.83315      4430.42915       -43.59415        34.59315  39201692.23315      5072.06315       -31.09215        32.42315
J04  37541702.12015     10490.23015       -84.29215        34.30915  37541709.01615     15083.06815       -62.72915        30.90615
J02                      4974.91612      -357.11212        15.98012                      3922.07612      -263.17412        16.35712
C01  37574811.19914     -2081.32314       -85.79614        28.91214
C02                      1412.33611       -84.28911        12.18811
C03                         2.15724       -80.00024        28.91724
C04                         1.06522       -68.29322        14.52422
C05                         2.11221      -117.07321         7.00021
C06  35896232.45515     12269.16915      -597.26415        33.93915
C07  36488902.65816     -3010.84016       155.79116        37.29916
C09  36227684.19616       703.82916       -31.10116        38.88416
C10                       -11.35324       240.00024        25.53124
C16                      8567.49516      -745.90916        37.97916
C19                       107.40221     -2247.80321         7.00021
C20                        61.79421     -2807.80221         7.00021
C22                        12.33926      -279.02426        39.21426
C27  22325422.63216    -25579.41816      1325.94516        38.34516
C28                        35.55421     -1623.41321         7.00021
C36  25034689.34517    -25173.83717      2323.15417        43.92017
C37  23656899.86915     34892.28215     -1807.00715        32.04915
E24  23976420.17016     -4504.38716       198.65416        38.45616  23976421.96815     -9360.95015       149.90215        31.16815
> 2022 11 18 10 44 52.0000838  0 38                      
G04  21436341.62915     27381.50215     -1152.47315        34.78515                                                                
G07  25213808.44416   -353407.59016      3135.88216        36.58916                                                                
G08  21858826.84915   -301489.79515      2920.49715        31.16315  21858828.64814   -386446.25314      2182.33114        29.22014
G09  22615466.73816    -89504.39616       946.34716        38.71216  22615474.23316    -92728.88616       708.01216        39.50316
G16  20537770.39716    112123.55216     -1026.97416        37.65116                                                                
G18  23975818.78615      5038.42015      -342.66015        33.06115                                                                
G26  21735511.11915    281040.86215     -2158.53215        35.34915  21735515.01615    566052.30415     -1611.50315        32.67015
G27  20039952.43016   -108670.94616      1012.88516        38.10616  20039960.52415   -156243.72315       758.42115        34.46115
G31  24007495.15714    880945.41814     -3129.80314        27.73314                                                                
R14                    707663.90116     -2645.72716        36.97116
R06                     16895.48514     -1145.76514        27.85714
R15                     88126.87116      -756.11916        36.76716
R05                    275059.78112     -4004.85912        16.02812
R24                    253349.23416     -3404.40816        36.69916
R103                    -65852.92612      4462.28712        12.86812
R17                     -9426.93115        47.47915        34.03415
R105                   -238841.00915      2058.45315        35.43715
J02  39201698.52915      4471.07215       -43.03015        34.19415  39201698.52915      5102.37315       -30.27115        29.63615
J04  37541720.10815     10574.32215       -82.75115        29.93515  37541725.50415     15148.34015       -62.05715        29.55215
J02                      5331.06412      -356.46612        15.37312                      4182.21212      -261.38912        17.28712
C01  37574820.49314     -1995.54214       -85.67014        28.50814
C02                      1484.71111       -84.32811         7.13611
C03                         2.15524       -78.04924        24.26324
C04                         1.06323       -64.39023        17.57223
C05                         2.11322      -115.12222        13.11322
C06  35896347.57615     12866.65315      -599.06115        33.74715
C07  36488869.98115     -3165.30815       154.47515        35.11015
C09  36227694.08916       738.51616       -34.19316        36.73916
C10                       -11.38624       241.95124        28.30224
C16                      9314.40915      -745.77015        34.16915
C19                       107.42821     -2245.85221         7.00021
C20                        61.83922     -2805.85122        12.77622
C22                        12.34621      -279.02421         7.00021
C27  22325168.40815    -26906.25115      1325.15315        34.50515
C28                        35.59325     -1623.41325        29.50525
C36  25034240.25616    -27494.94416      2321.20316        40.52916
C37  23657247.32815     36700.36215     -1807.79215        31.54815
E24  23976374.00216     -4710.74316       199.81916        38.68916  23976388.09215     -9510.62315       149.45715        33.18315
> 2022 11 18 10 44 53.0000837  0 38                      
G04  21436534.99615     28534.44815     -1153.14115        30.38715                                                                
G07  25213177.68015   -356547.48415      3136.22915        34.35815                                                                
G08  21858240.15514   -304408.30314      2918.85314        25.92714  21858242.25414   -388632.53614      2182.22914        23.78014
G09  22615255.38415    -90450.69215       944.92215        30.95415  22615259.88115    -93433.11415       705.34515        31.47315
G16  20537937.08214    113147.87814     -1027.68614        29.15714                                                                
G18  23975848.16615      5385.45115      -344.84315        29.58515                                                                
G26  21735886.75915    283200.28115     -2158.34015        29.94215  21735894.25414    567664.13714     -1614.16214        28.46414
G27  20039728.18515   -109684.32715      1014.36115        30.76915  20039738.37815   -156997.27415       755.53515        29.88215
G31  24008061.16514    884076.91414     -3132.48314        24.37614                                                                
R14                    710305.93515     -2645.45515        32.80515
R06                     18043.60014     -1146.15314        25.11814
R15                     88882.09815      -758.42715        31.16415
R05                    279066.61512     -4003.04812        12.93412
R24                    256755.63215     -3406.72115        33.99215
R103                    -70323.36011      4469.86011        12.00811
R17                     -9473.52915        45.23615        30.33115
R105                   -240895.51715      2055.46215        31.11915
J02  39201677.84315      4510.96215       -39.59015        29.59415  39201677.84314      5133.21014       -29.32614        25.07214
J04  37541704.81914     10656.78314       -81.07114        25.59114  37541711.41414     15212.97014       -61.22714        24.65714
J02                      5686.30512      -355.93412        13.04212                      4449.28012      -263.40712        13.08012
C01  37574805.20414     -1909.61114       -86.16414        24.24814
C02                      1556.30211       -84.48111         7.00011
C03                         2.14821       -76.09721         7.00021
C04                         1.06121       -64.39021         7.00021
C05                         2.10722      -113.17122        14.52422
C06  35896434.81514     13465.31014      -600.98514        29.23314
C07  36488811.22215     -3319.82815       156.61915        30.75015
C09  36227671.60515       776.25615       -36.60715        31.86715
C10                       -11.40423       243.90223        19.59223
C16                     10062.79614      -745.97514        29.40214
C19                       107.31321     -2243.90021         7.00021
C20                        61.70722     -2803.90022        15.30122
C22                        12.31224      -277.07324        24.65924
C27  22324883.90415    -28235.25015      1327.16215        29.76515
C28                        35.52921     -1623.41321         7.00021
C36  25033767.78315    -29811.81215      2320.94415        32.97715
C37  23657563.61014     38511.15914     -1809.18814        28.05614
E24  23976310.14615     -4921.17215       201.80115        30.65315  23976320.63914     -9659.28814       152.50214        29.05514
> 2022 11 18 10 44 54.0000837  0 38                      
G04  21436756.84214     29685.01614     -1153.56614        28.73314                                                                
G07  25212583.79116   -359682.60316      3135.04216        35.74316                                                                
G08  21857688.83713   -307325.46013      2921.24913        21.17313                   -390818.11813      2182.49613        18.09313
G09  22615080.00615    -91396.62615       946.37515        34.69215  22615082.40415    -94140.26015       702.29615        32.80215
G16  20538133.14615    114175.95215     -1028.71715        29.58515                                                                
G18  23975913.22114      5731.49114      -346.02414        27.18714                                                                
G26  21736300.17315    285360.22915     -2158.28415        32.13615  21736305.26915    569278.72015     -1614.84015        30.57215
G27  20039535.71814   -110702.31814      1015.39114        27.13214  20039548.01014   -157750.95414       753.97414        27.75014
G31  24008670.94313    887208.14913     -3129.40013        21.09313                                                                
R14                    712950.58314     -2644.96814        28.79514
R06                     19192.71614     -1147.18414        23.89414
R15                     89639.65015      -759.68815        30.53615
R05                    283069.78711     -4000.57911        11.00011
R24                    260158.00815     -3404.91515        30.17415
R103                    -74793.95511      4462.15211        11.31811
R17                     -9517.46015        41.71115        30.17615
R105                   -242952.06814      2053.99114        28.13914
J02  39201685.63814      4551.38014       -37.24414        28.51814  39201687.73614      5163.65114       -29.60814        26.11814
J04  37541722.80614     10737.19414       -79.87014        23.76814  37541727.00313     15276.54013       -62.06313        23.18113
J02                      6040.21111      -354.10511         7.71011                      4714.76611      -261.63511         8.02811
C01                     -1823.80113       -85.99513        19.19713
C02                      1626.86511       -84.27211         7.00011
C03                         2.15321       -78.04921         7.00021
C04                         1.06421       -66.34121         7.00021
C05                         2.11121      -115.12221         7.00021
C06  35896550.53514     14066.24114      -602.82414        25.50314
C07  36488783.04114     -3476.57114       156.94614        28.88514
C09  36227678.80014       816.26314       -38.58014        28.30514
C10                       -11.38222       241.95122        15.19922
C16                     10808.37814      -746.90014        23.89214
C19                       107.39321     -2245.85221        11.02421
C20                        61.79521     -2805.85121         7.00021
C22                        12.34221      -279.02421         7.00021
C27  22324630.28014    -29565.87014      1327.26914        26.58214
C28                        35.56925     -1625.36425        30.72925
C36  25033323.19115    -32133.65315      2321.43215        35.22115
C37  23657913.76714     40324.01914     -1811.51214        28.91514
E24  23976281.36615     -5124.73715       203.27915        31.48715  23976279.86715     -9808.89015       151.55915        30.31015
> 2022 11 18 10 44 55.0000836  0 37                      
G04  21436948.40914     30836.89514     -1153.99314        25.48414                                                                
G07  25211956.32615   -362816.77815      3132.69815        31.47215                                                                
G08                   -310244.88713      2919.39713        18.53913                   -393001.49711      2182.91511        12.33611
G09  22614872.55015    -92340.82215       947.42215        31.55715  22614874.04815    -94841.92015       707.07515        32.90415
G16  20538299.83114    115204.01214     -1028.69014        29.25314                                                                
G18  23975949.49615      6079.94415      -348.33515        31.65715                                                                
G26  21736693.80015    287520.94715     -2159.40815        34.44115  21736686.30515    570895.24615     -1615.89015        30.66115
G27  20039312.67314   -111719.80214      1014.52814        25.88814  20039326.76313   -158504.13213       752.32213        23.38513
G31  24009230.05614    890340.81314     -3128.60914        25.18114                                                                
R93                    715595.32015     -2645.24115        31.24215
R06                     20341.23613     -1146.04113        23.23013
R15                     90399.16915      -759.79915        32.68815
R05                    287067.70911     -4002.06211         7.00011
R24                    263563.40415     -3405.02115        34.17215
R103                    -79264.74311      4479.48611        10.45811
R17                     -9556.91915        38.54515        30.53915
R105                   -245007.64514      2054.91014        29.33814
J02  39201662.25414      4590.42314       -37.57914        28.13214  39201664.95214      5192.64814       -30.03214        25.85514
J04  37541714.11214     10816.60314       -79.02314        24.67614  37541709.61513     15337.72213       -62.12313        20.73613
J02                      6393.09611      -354.80811        11.71711                      4976.75411      -260.14511         8.08111
C01                     -1738.01012       -85.80912        15.06512
C03                         2.15521       -78.04921         7.00021
C04                         1.06422       -64.39022        15.42822
C05                         2.11421      -115.12221         7.00021
C06  35896637.17513     14671.36713      -602.36613        21.29713
C07  36488723.08314     -3634.26014       158.30814        27.02314
C09  36227657.21514       857.95414       -38.75314        27.43514
C16                     11554.55513      -748.13113        21.99513
C19                       107.30521     -2245.85221         7.00021
C20                        61.83921     -2803.90021         7.00021
C22                        12.37224      -280.97524        29.08124
C27  22324352.07314    -30897.58214      1327.66514        26.57614
C28                        35.60721     -1625.36421         7.00021
C36  25032849.21915    -34457.68915      2322.67715        29.72115
C37  23658231.24715     42138.08915     -1814.24415        30.18615
E24  23976204.91914     -5329.41214       197.74114        29.08414  23976211.81414     -9962.03614       151.07114        29.29914
E31                        11.94621     -1489.75521         7.00021                                                                
> 2022 11 18 10 44 56.0000836  0 38                      
G04  21437164.86014     31990.17914     -1152.95114        27.56814                                                                
G07  25211363.33615   -365951.18115      3132.93815        35.27515                                                                
G08                   -313161.74712      2916.29712        16.16812                   -395187.45111      2183.04811         7.00011
G09  22614691.17515    -93288.60115       947.44515        31.90315  22614692.97415    -95546.19215       705.16815        32.44615
G16  20538494.39616    116232.01916     -1027.83316        35.79016                                                                
G18  23976016.04915      6430.04915      -349.54915        31.46815                                                                
G26  21737093.42315    289682.69515     -2162.53515        35.14315  21737100.31915    572510.74715     -1616.80615        32.57215
G27  20039122.30414   -112731.06514      1013.64714        27.27914  20039136.99413   -159257.03813       761.89913        20.51313
G31  24009825.14414    893471.03614     -3129.95514        23.67214                                                                
R93                    718240.90015     -2649.43015        33.91215
R06                     21486.97014     -1146.37414        27.43214
R15                     91159.01515      -759.38815        33.66715
R05                    291064.28612     -3998.09412        12.61112
R24                    266970.00515     -3407.42815        35.17015
R103                    -83735.61411      4472.82411         9.59711
R17                     -9589.65115        36.60315        33.60515
R105                   -247064.48515      2056.14215        31.20115
J02  39201669.44915      4630.73015       -38.55815        30.40215  39201673.04614      5222.17914       -30.52114        24.93414
J04  37541724.90514     10897.20014       -81.41914        27.56714  37541724.00513     15395.53613       -62.61913        20.62313
J02                      6745.13311      -351.86611         7.00011                      5239.95912      -258.79812        13.17512
C01                     -1651.95913       -84.94013        17.85313
C03                         2.15221       -78.04921         7.00021
C04                         1.06121       -64.39021         7.00021
C05                         2.10921      -115.12221         7.00021
C06                     15276.13713      -600.64513        19.12013
C07  36488691.30514     -3794.52514       161.09614        25.64014
C09  36227662.91114       897.40914       -36.81614        26.47514
C10                   1365040.76311       241.94411         7.00011
C16                     12300.41014      -747.53114        23.87714
C19                       107.35822     -2245.85222        13.23222
C20                        61.72921     -2803.90021         7.00021
C22                        12.36121      -280.97521         7.00021
C27  22324095.15114    -32224.25514      1326.42414        24.01714
C28                        35.54425     -1625.36425        35.15025
C36  25032402.22914    -36782.63314      2322.55614        28.19614
C37  23658579.90615     43954.68315     -1816.84815        33.67115
E24  23976174.34016     -5533.02416       197.25616        35.74116  23976174.04014    -10118.48714       150.83914        26.03714
E31                        11.88825     -1489.75525        35.33125                                                                
> 2022 11 18 10 44 57.0000835  0 37                      
G04  21437357.02714     33142.41414     -1152.42214        28.05214                                                                
G07  25210734.97116   -369087.20916      3134.87016        38.63916                                                                
G08                   -316077.17911      2917.73411        10.83611                   -397376.96611      2185.35411         7.00011
G09  22614480.72115    -94233.97415       946.60415        30.58015  22614484.61815    -96252.21115       705.33315        31.98515
G16  20538661.98015    117258.72515     -1026.29115        35.07815                                                                
G18  23976056.82116      6780.54216      -350.40816        35.65916                                                                
G26  21737477.75716    291844.68616     -2163.62516        35.88316  21737480.75515    574125.85515     -1615.89615        32.63515
G27  20038901.65714   -113741.13314      1011.82114        24.99514  20038908.85214   -160009.90114       751.50714        24.12314
G31  24010392.05113    896601.78213     -3130.36513        22.99813                                                                
R93                    720886.26015     -2648.29715        31.01215
R06                     22631.43215     -1147.86315        30.71015
R15                     91916.67316      -757.06616        35.64016
R05                    295063.05211     -3995.81011        10.48211
R24                    270376.88615     -3406.44415        35.06715
R103                    -88206.28311      4469.22111        10.05911
R17                     -9625.90615        35.79815        33.82715
R105                   -249122.69814      2056.96014        28.98814
J02  39201649.06315      4671.24315       -40.07815        30.92215  39201650.56213      5253.66013       -30.94713        23.02613
J04  37541713.21314     10978.94214       -82.63314        26.87614  37541714.41213     15459.53913       -63.67713        22.87313
J02                      7094.16611      -345.70511         8.23611                      5496.68311      -256.90711         8.12311
C01                     -1566.24113       -86.16813        17.67813
C03                         2.15021       -76.09721         7.00021
C04                         1.06321       -64.39021         7.00021
C05                         2.11021      -113.17121         7.00021
C06  35896838.33613     15876.50013      -600.19013        21.93013
C07  36488630.44714     -3955.05314       161.70614        26.33314
C09  36227642.82514       930.33914       -32.41414        26.88614
C16                     13047.78714      -748.03014        26.05414
C19                       107.41021     -2245.85221         7.00021
C20                        61.77422     -2801.94922        13.49422
C22                        12.36724      -280.97524        24.66324
C27  22323813.04614    -33546.98514      1322.62714        28.06614
C28                        35.58421     -1627.31621         7.00021
C36  25031927.35714    -39103.09514      2322.28414        28.85614
C37  23658899.48516     45770.40516     -1815.81616        35.61616
E24  23976107.18616     -5735.76816       206.58616        35.62216  23976107.48614    -10273.50914       150.78714        24.13614
E31                        11.92325     -1489.75525        34.08025                                                                
> 2022 11 18 10 44 58.0000834  0 38                      
G04  21437549.49314     34291.80914     -1153.31614        27.84814                                                                
G07  25210107.20616   -372223.87616      3135.80316        39.12916                                                                
G08                   -318990.91912      2911.51212        15.00912                   -399568.82411      2189.64111         7.00011
G09  22614270.86615    -95177.24415       945.13415        31.90215  22614272.96515    -96955.23015       703.34515        33.62315
G16  20538827.76515    118282.71815     -1024.73215        34.02515                                                                
G18  23976093.09615      7130.80515      -350.28815        34.93515                                                                
G26  21737859.99316    294007.99616     -2164.21316        37.37616  21737861.49216    575740.43916     -1614.19916        35.51116
G27  20038684.00814   -114751.49914      1010.57014        27.62714  20038681.90914   -160763.22514       753.45214        25.10614
G31  24010959.25914    899732.35614     -3130.42014        24.43714                                                                
R93                    723534.78215     -2648.65015        32.94815
R06                     23781.56415     -1149.05315        31.66615
R15                     92673.32715      -756.11415        34.90315
R101                    299064.40611     -4006.10911        11.79611
R24                    273783.17915     -3405.47815        33.88715
R103                     -6225.30421      4470.74321         7.00021
R17                     -9661.35615        35.34815        34.30215
R105                   -251177.73315      2055.74715        33.88615
J02  39201628.07814      4712.64214       -40.56314        29.43514  39201629.57714      5285.02914       -30.68614        26.01414
J04  37541700.32214     11061.43914       -84.32414        27.23314  37541701.82114     15522.73914       -63.56914        24.32214
J02                      7445.04311      -349.09711        10.62611                      5755.33811      -255.90811         7.00011
C01                     -1480.41513       -85.82113        19.64513
C03                         2.15622       -78.04922        15.58822
C04                         1.06821       -68.29321         7.00021
C05                         2.11321      -113.17121         7.00021
C06  35896923.17713     16473.72713      -598.93313        23.03313
C07  36488572.58715     -4112.55115       159.16715        30.07515
C09  36227617.34214       959.22014       -30.31914        25.17614
C10  37541463.48613   2729707.37513       242.42013        20.96713
C16                     13795.24214      -747.28914        26.00914
C19                       107.32221     -2245.85221         7.00021
C20                        61.66421     -2801.94921         7.00021
C22                        12.37925      -282.92725        32.17825
C27  22323528.24314    -34863.79314      1320.70514        25.85714
C28                        35.62626     -1631.21826        40.03526
C36  25031450.08814    -41423.83914      2323.32614        27.21614
C37  23659218.46416     47583.85716     -1812.54316        36.82616
E24  23976036.73515     -5940.03315       201.00815        35.08815  23976041.53214    -10423.51814       151.20014        24.41914
E31  25060775.18615      1206.33315     -1494.37115        33.81515                      8933.32613     -1116.82813        18.81713
> 2022 11 18 10 44 59.0000834  0 38                      
G04  21437764.74414     35446.38314     -1154.58214        27.66714                                                                
G07  25209506.72215   -375360.57115      3137.57115        35.23415                                                                
G08                   -321903.11512      2909.15412        14.28912                   -401754.70311      2195.01511         7.00011
G09  22614092.19015    -96120.31315       942.00415        34.59215  22614092.78915    -97656.91615       705.41115        32.22815
G16  20539026.52815    119307.99115     -1026.91115        32.34115                                                                
G18  23976156.05315      7479.45515      -348.67615        35.36815                                                                
G26  21738268.01015    296170.05615     -2163.26615        35.15515  21738272.50715    577352.30315     -1610.69815        32.90015
G27  20038489.74214   -115761.84814      1010.54114        25.78014  20038490.64214   -161518.16014       755.04114        28.10414
G31  24011554.34714    902862.49414     -3129.65014        24.84714                                                                
R93                    726181.12815     -2646.42415        31.24215
R06                     24932.03215     -1149.60015        33.32015
R15                     93430.32415      -756.98815        35.38915
R101                    303068.91912     -4001.15012        15.14212
R24                    277187.92316     -3405.14616        35.53416
R103                     -6225.24322      4471.23022        14.67822
R17                     -9697.00415        33.57915        30.79915
R105                   -253231.79516      2054.04616        36.87516
J02  39201636.77215      4753.28415       -40.72115        30.31315  39201637.67114      5315.23314       -30.37814        26.80314
J04  37541715.91114     11143.87014       -85.16914        26.17414  37541720.40813     15586.54713       -64.38313        22.97813
J02                      7797.91811      -351.19911        11.97711                      6011.77511      -254.41511        11.84311
C01                     -1394.40113       -85.49413        21.64713
C03                         2.15321       -78.04921         7.00021
C04                         1.06523       -68.29323        19.78523
C05                         2.10821      -113.17121         7.00021
C06  35897037.39814     17070.69614      -596.61714        25.90914
C07  36488539.61015     -4270.33915       158.27615        33.97415
C09  36227624.23814       986.64814       -28.77114        27.24714
C10  37541397.23213   2729469.29013       239.95713        23.46013
C16                     14541.97514      -745.45014        25.25614
C19                       107.37523     -2245.85223        18.98923
C20                        61.75123     -2803.90023        19.25423
C22                        12.38626      -282.92726        38.30426
C27  22323275.21814    -36183.65414      1321.06714        23.55514
C28                        35.56221     -1631.21821         7.00021
C36  25031005.49514    -43748.37614      2323.60514        27.12714
C37  23659563.52515     49395.67415     -1811.34215        33.42915
E24  23975994.46415     -6142.71215       197.74715        32.20215  23976003.75814    -10574.09414       151.75314        26.56014
E31  25061060.88915      2698.66015     -1492.17915        34.45715                     10052.93314     -1116.82814        26.74314
> 2022 11 18 10 45 00.0000833  0 38                      
G04  21437954.21315     36602.59015     -1155.78715        30.56015                                                                
G07  25208881.05516   -378498.07416      3137.35816        35.54716                                                                
G08                   -324813.50112      2907.05112        14.09512                   -403942.02811      2185.35411         7.00011
G09  22613883.23415    -97062.84115       941.77315        32.66615  22613882.03515    -98358.25915       706.55115        32.29815
G16  20539192.01315    120335.91915     -1029.62015        30.46615                                                                
G18  23976196.22516      7827.62816      -348.86416        36.20116                                                                
G26  21738652.04416    298330.23716     -2160.59216        35.59916  21738653.24415    578963.84015     -1610.71915        32.87115
G27  20038265.79714   -116770.73214      1010.43714        28.68014  20038268.49514   -162272.79414       755.79514        25.80214
G31  24012124.55214    905991.69614     -3128.47814        27.52714                                                                
R93                    728824.85015     -2643.83415        32.80815
R06                     26079.16215     -1149.51415        30.38015
R15                     94185.21815      -756.30215        33.82715
R101                    307069.32212     -3999.23812        13.85612
R24                    280592.20115     -3404.33215        34.99015
R103                     -6225.44422      4470.74322        16.79422
R17                     -9732.56515        33.71815        30.75215
R105                   -255285.20116      2052.37016        36.08016
J02  39201613.68814      4792.58314       -40.02514        29.46814  39201611.88914      5344.97214       -28.89614        25.76314
J04  37541705.11814     11224.61614       -82.86414        26.36514  37541704.81913     15647.67313       -62.91813        22.52313
J02                      8147.57112      -351.31812        14.23512                      6270.14911      -255.76711        12.01611
C01                     -1308.56013       -85.85913        21.96013
C03                         2.15521       -78.04921         7.82721
C04                         1.06721       -68.29321         7.00021
C05                         2.11121      -113.17121         7.00021
C06  35897122.83914     17664.81414      -594.71814        24.80514
C07  36488480.85015     -4428.70615       158.71315        34.10715
C09  36227598.75514      1017.43814       -30.79114        28.22014
C10  37541329.17914   2729233.70714       237.41714        24.83014
C16                     15287.90814      -743.53914        24.19114
C19                       107.42823     -2245.85223        19.37423
C20                        61.81721     -2803.90021         7.00021
C22                        12.39321      -282.92721         7.00021
C27  22322996.41114    -37503.07414      1323.45914        29.46314
C28                        35.60026     -1631.21826        35.60426
C36  25030527.02714    -46071.08914      2323.70414        27.06014
